LATITUDE,LONGITUDE,ADDRESS,ZIPCODE,SUBLOCALITY,TYPE,BEDS,BATH,PROPERTYSQFT,PRICE,BROKERTITLE,HOUSE_UNIT_LATLON_KEY,BOROUGH
40.761255,-73.9744834,"Regis Residence, 2 E 55th Street #803",10022,Midtown East,condo,2,2.0,1400.0,315000,Douglas Elliman,|803|40.761255|-73.9744834,Manhattan
40.7663935,-73.9809909,217 W 57th Street,10019,Midtown West / Hell's Kitchen,house,7,10.0,17545.0,195000000,Serhant,217||40.7663935|-73.9809909,Manhattan
40.5418051,-74.1961086,620 Sinclair Avenue,10312,Huguenot,house,4,2.0,2015.0,260000,Sowae Corp,620||40.5418051|-74.1961086,Staten Island
40.7613979,-73.9746128,2 E 55th Street,10022,Midtown East,house,3,1.0,445.0,69000,Compass,2||40.7613979|-73.9746128,Manhattan
40.7672235,-73.9698561,5 E 64th Street,10065,Upper East Side,house,7,2.37,14175.0,55000000,Sotheby'S International Realty,5||40.7672235|-73.9698561,Manhattan
40.6743632,-73.9587248,584 Park Place,11238,Park Slope,house,5,2.0,4004.0,690000,Sowae Corp,584||40.6743632|-73.9587248,Brooklyn
40.809448,-73.946777,157 W 126th Street #1B,10027,Harlem,condo,2,2.0,2184.21,899500,Douglas Elliman,157|1b|40.809448|-73.946777,Manhattan
40.5950017,-74.1064235,177 Benedict Road,10304,Mariner's Harbor,house,8,16.0,33000.0,16800000,Connie Profaci Realty,177||40.5950017|-74.1064235,Staten Island
40.8215857,-73.8740892,"Parking Lot, 875 Morrison Avenue #3M",10473,Soundview Bruckner,condo,1,1.0,750.0,265000,Pantiga Group Inc.,|3m|40.8215857|-73.8740892,Bronx
40.6157378,-73.9696944,1350 Ocean Parkway #5G,11230,Midwood,condo,2,1.0,978.0,440000,Century 21 Mk Realty,1350|5g|40.6157378|-73.9696944,Brooklyn
40.8248699,-73.9229829,800 Grand Concourse #2J,10451,Mott Haven,condo,2,1.0,850.0,375000,Engel & Volkers Americas,800|2j|40.8248699|-73.9229829,Bronx
40.6249962,-74.1553058,456 Van Name Avenue,10303,Stapleton,house,3,2.37,1162.0,689000,Re/Max Edge,456||40.6249962|-74.1553058,Staten Island
40.7531191,-73.8818757,34-41 85th Street #1B,11372,Forest Hills,condo,3,1.0,2184.21,259000,Compass,34|1b|40.7531191|-73.8818757,Queens
40.7438639,-73.8745722,91-15 Lamont Avenue #6D,11373,Elmhurst,condo,2,2.0,2184.21,430000,Jamie & Connie Real Estate Grp,91|6d|40.7438639|-73.8745722,Queens
40.7382981,-74.0058899,61 Jane Street #6N,10014,West Village,condo,3,1.0,2184.21,895000,Corcoran Chelsea/Flatiron,61|6n|40.7382981|-74.0058899,Manhattan
40.5406209,-74.1671632,4654 Amboy Road #2B,10312,Huguenot,condo,2,2.0,1000.0,549000,Awaye Realty,4654|2b|40.5406209|-74.1671632,Staten Island
40.7607676,-73.9056672,28-31 Hobart Street,11377,Flushing,house,3,2.0,1734.0,975000,Realty Executives Today,28||40.7607676|-73.9056672,Queens
40.6181029,-74.0369047,9430 Ridge Boulevard #6D,11209,Fort Hamilton,condo,3,1.0,325.0,199000,Dorsa Group Realty,9430|6d|40.6181029|-74.0369047,
40.9073699,-73.9065578,5800 Arlington Avenue Apt 21S,10471,Eastchester,condo,1,1.0,700.0,350000,Coldwell Banker Realty,5800||40.9073699|-73.9065578,Bronx
40.7324713,-73.8670804,92-29 Queens Boulevard #3H,11374,Elmhurst,condo,2,2.0,974.0,599000,Keller Williams Rlty Landmark,92|3h|40.7324713|-73.8670804,Queens
40.6207403,-74.1114362,27 Clove Way,10301,St. George,house,3,2.0,1260.0,639999,Radiant Estates Llc,27||40.6207403|-74.1114362,Staten Island
40.7202429,-73.8430513,10724 71st Road #9F,11375,Fresh Meadows,condo,2,2.0,1244.0,1300000,"Apaus, Inc",10724|9f|40.7202429|-73.8430513,Queens
40.8343936,-73.8221101,1038 Throgs Neck Expy,10465,Throgs Neck,house,6,3.0,2837.0,1100000,Keller Williams Ny Realty,1038||40.8343936|-73.8221101,Bronx
40.5902064,-74.0958034,165 Cromwell Avenue #2B,10304,South Beach,condo,1,1.0,651.0,349900,Martino Realty Group,165|2b|40.5902064|-74.0958034,Staten Island
40.5039785,-74.2396555,280 Loretto Street,10307,Tottenville,house,2,2.0,1330.0,750000,Elizabeth Marra,280||40.5039785|-74.2396555,Staten Island
40.710749,-73.809486,149-07 85th Road,11435,Jamaica,house,6,4.0,2200.0,1690000,Century 21 Milestone Realty,149||40.710749|-73.809486,Queens
40.7505078,-73.8851355,35-45 81st Street E1,11372,Jackson Heights,house,1,1.0,2184.21,325000,"Nest Seekers International, Long Island",35||40.7505078|-73.8851355,Queens
40.602654,-73.9869399,2361 81st Street,11214,Bensonhurst,house,12,2.37,5670.0,2250000,Century 21 Realty First,2361||40.602654|-73.9869399,Brooklyn
40.7557689,-73.8734231,33-24 Junction Boulevard,11372,Forest Hills,house,1,1.0,2184.21,230000,Du Chris Realty,33||40.7557689|-73.8734231,Queens
40.6155667,-74.0869554,310 Hillside Avenue #312,10304,Mariner's Harbor,condo,10,6.0,3156.0,1299888,Ashford Homes,310|312|40.6155667|-74.0869554,Staten Island
40.8242389,-73.8173809,543 Hollywood Avenue,10465,Pelham Bay,house,5,2.0,2750.0,925000,Nobroker,543||40.8242389|-73.8173809,Bronx
40.6210398,-74.1504313,47 Lynn Ct,10314,Graniteville,house,1,2.0,794.0,329000,Get Listed Get Sold Nyc,47||40.6210398|-74.1504313,Staten Island
40.6274381,-74.1581613,366 Union Avenue #4,10303,Stapleton,condo,10,8.0,5040.0,1300000,Rjm Realty Empire Inc.,366|4|40.6274381|-74.1581613,Staten Island
40.6615475,-73.898309,544 Hinsdale Street,11207,East New York,house,5,4.0,2080.0,848000,Re Max Edge,544||40.6615475|-73.898309,Brooklyn
40.6179165,-73.9546305,1801 Ocean Avenue #4A,11230,Midwood,condo,1,1.0,750.0,279000,H P Greenfield Real Estate Ltd,1801|4a|40.6179165|-73.9546305,Brooklyn
40.6275896,-74.0016198,1238 63rd Street #432,11219,Borough Park,condo,1,1.0,602.0,528000,Ashford Homes Llc,1238|432|40.6275896|-74.0016198,
40.7528774,-73.8211834,44-55 Kissena Boulevard #5F,11355,Flushing,condo,1,1.0,2184.21,275000,E Realty International Corp,44|5f|40.7528774|-73.8211834,Queens
40.711969,-73.9649468,338 Berry Street #4E,11249,Williamsburg,condo,1,1.0,815.0,1165000,Corcoran Park Slope,338|4e|40.711969|-73.9649468,
40.5159256,-74.2361135,10 Simon Ct,10307,Tottenville,house,6,5.0,3290.0,1199000,Staten Island Homes Realty Corp,10||40.5159256|-74.2361135,Staten Island
40.852813,-73.9176871,229 W Tremont Avenue,10453,Morrisania,house,6,2.0,3053.0,700000,Exp Realty,229||40.852813|-73.9176871,Bronx
40.614446,-73.9795824,2226 63rd Street,11204,Borough Park,house,8,4.0,3200.0,2150000,Century 21 Realty First,2226||40.614446|-73.9795824,Brooklyn
40.688312,-73.856322,86-05 91st Avenue,11421,Jamaica,house,7,5.0,2460.0,1280000,E Realty International Corp,86||40.688312|-73.856322,Queens
40.8260352,-73.9256625,828 Gerard Avenue #5F,10451,Concourse,condo,1,1.0,2184.21,199900,Brown Harris Stevens,828|5f|40.8260352|-73.9256625,Bronx
40.753455,-73.8209077,43-40 Union Street #3D,11355,Flushing,condo,2,1.0,2184.21,369000,Winzone Realty Inc,43|3d|40.753455|-73.8209077,Queens
40.6847504,-73.8027331,111-31 141st Street,11435,Jamaica,house,4,3.0,1591.0,699000,Prestige Homes Ny Inc,111||40.6847504|-73.8027331,Queens
40.725464,-73.9999212,123 Prince Street Apt 1F,10012,SoHo,condo,3,2.0,2400.0,4250000,Brown Harris Stevens,123||40.725464|-73.9999212,Manhattan
40.768457,-73.789417,32-39 Jordan Street,11358,Whitestone,house,2,2.0,2184.21,825000,Weichert Realtors Tmt Group,32||40.768457|-73.789417,Queens
40.6315346,-74.0856344,55 Austin Place Apt 4L,10304,Mariner's Harbor,condo,2,1.0,837.0,329000,American Homes Group,55||40.6315346|-74.0856344,Staten Island
40.6233188,-74.1259917,17 S Greenleaf Avenue,10314,Tottenville,house,2,2.0,1520.0,889000,Wonica Realtors & Appraisers,17||40.6233188|-74.1259917,Staten Island
40.6868333,-73.8309133,"101-55 112th Street, South Richmond Hill",11419,Jamaica,house,2,2.0,2184.21,769000,First Class Homes Inc,101||40.6868333|-73.8309133,Queens
40.6042861,-74.0012526,66 Bay 22nd Street,11214,Bath Beach,house,4,2.0,2536.0,1200000,Exp Realty Bkny,66||40.6042861|-74.0012526,Brooklyn
40.6481488,-74.0847983,350 Richmond Terrace Apt 3N,10301,Howland Hook,condo,2,1.0,900.0,220500,Vylla Home,350||40.6481488|-74.0847983,Staten Island
40.6281691,-74.0297598,259 80th Street,11209,Bay Ridge,house,3,3.0,2739.0,1999000,Re Max Edge,259||40.6281691|-74.0297598,
40.7199716,-73.9980266,"The Police Building, 240 Centre Street #2B",10013,Little Italy,condo,2,2.0,1300.0,3250000,Douglas Elliman,|2b|40.7199716|-73.9980266,Manhattan
40.6866098,-73.9997131,473 Hicks Street Apt 4,11231,Red Hook,condo,2,2.0,1267.0,1650000,Douglas Elliman,473||40.6866098|-73.9997131,Brooklyn
40.5016233,-74.2417531,342 Manhattan Street,10307,Tottenville,house,4,4.0,2554.0,1049000,"Homes R Us Realty Of Ny, Inc.",342||40.5016233|-74.2417531,Staten Island
40.6175,-74.103996,1191 Clove Road,10301,St. George,house,3,4.0,2400.0,998800,American Homes Group,1191||40.6175|-74.103996,Staten Island
40.618648,-74.1019085,Waldron Avenue,10301,St. George,house,3,4.0,2400.0,998800,American Homes Group,||40.618648|-74.1019085,Staten Island
40.6754035,-73.9742051,184 Lincoln Place #2,11217,Park Slope,condo,3,2.0,1952.0,3150000,Degi,184|2|40.6754035|-73.9742051,Brooklyn
40.7802357,-73.9846328,263 West End Avenue #14C,10023,Upper West Side,condo,1,1.0,2184.21,849000,Brown Harris Stevens,263|14c|40.7802357|-73.9846328,Manhattan
40.5751942,-73.9669983,50 Brighton 1st Road #5H,11235,Sheepshead Bay,condo,1,1.0,800.0,559500,Piastro Realty Llc,50|5h|40.5751942|-73.9669983,Brooklyn
40.7643711,-73.9593578,333 E 66th Street #8E,10065,Upper East Side,condo,1,1.0,835.0,750000,Douglas Elliman,333|8e|40.7643711|-73.9593578,Manhattan
40.7193408,-73.9856438,150 Rivington Street #3G,10002,Lower East Side,condo,2,2.0,1029.0,1900000,Douglas Elliman,150|3g|40.7193408|-73.9856438,Manhattan
40.6400234,-73.9676099,1105 Cortelyou Road #301,11218,Flatbush,condo,2,2.0,1201.0,1250000,Corcoran Williamsburg Bedford,1105|301|40.6400234|-73.9676099,Brooklyn
40.6787789,-73.9643728,737 Bergen Street #1B,11238,Park Slope,condo,2,2.0,1182.0,1395000,Compass,737|1b|40.6787789|-73.9643728,Brooklyn
40.700309,-73.8535466,"83-55 Woodhaven Boulevard #1A, Woodhaven",11421,Jamaica,condo,1,1.0,2184.21,198000,Monticello Real Estate Group,83|1a|40.700309|-73.8535466,Queens
40.5632116,-74.1002521,35 Center Place,10306,New Dorp,house,3,2.0,1400.0,619888,Better Homes And Gardens Real Estate Safari Realty,35||40.5632116|-74.1002521,Staten Island
40.5395319,-74.1450877,205 Wiman Avenue,10308,St. George,house,6,2.37,3780.0,1489000,Ashford Homes,205||40.5395319|-74.1450877,Staten Island
40.7765613,-73.9633167,4 E 79th Street,10075,Upper East Side,house,3,2.37,15200.0,65000000,Sotheby'S International Realty,4||40.7765613|-73.9633167,Manhattan
40.6915139,-73.935444,924 Lafayette Avenue,11221,Clinton Hill,house,3,3.0,1413.0,1595000,Serhant,924||40.6915139|-73.935444,Brooklyn
40.6967268,-73.9074036,1504 Jefferson Avenue,11237,Bushwick,house,3,2.0,803.0,655000,Douglas Elliman,1504||40.6967268|-73.9074036,
40.6915139,-73.935444,924 Lafayette Avenue #2,11221,Clinton Hill,condo,2,2.0,1115.0,1175000,Serhant,924|2|40.6915139|-73.935444,Brooklyn
40.7832094,-73.7967588,16-33 166th Street,11357,Whitestone,house,9,2.37,2350.0,2880000,E Realty International Corp,16||40.7832094|-73.7967588,Queens
40.5874844,-74.0701056,425 Father Capodanno Boulevard,10305,Port Richmond,house,3,4.0,2150.0,798000,Momentum Real Estate Llc,425||40.5874844|-74.0701056,Staten Island
40.7083434,-73.9081614,"519 Fairview Avenue, Ridgewood",11385,Jackson Heights,house,3,2.37,2184.21,1685000,"Apaus, Inc",519||40.7083434|-73.9081614,Queens
40.764953,-73.977568,111 W 57th Street #50,10019,Midtown West / Hell's Kitchen,condo,3,4.0,4492.0,31000000,Corcoran Chelsea/Flatiron,111|50|40.764953|-73.977568,Manhattan
40.5785288,-73.9655666,234 Ocean View Avenue,11235,Brighton Beach,house,3,2.37,2184.21,2550000,"Dom Realty, Inc",234||40.5785288|-73.9655666,Brooklyn
40.8841699,-73.8388387,3652 De Reimer Avenue,10466,Van Nest,house,3,2.37,2184.21,119000,Meyers Enterprise Realty Group,3652||40.8841699|-73.8388387,Bronx
40.6534433,-73.741373,241-49 148th Drive,11422,Jamaica,house,5,2.0,2184.21,269000,Gosen Properties Inc,241||40.6534433|-73.741373,Queens
40.7833546,-73.9499982,200 E 94th Street Apt 414,10128,Upper East Side,condo,2,2.0,1065.0,1650000,Douglas Elliman,200||40.7833546|-73.9499982,Manhattan
40.7363219,-74.0018035,214 W 11th Street,10014,West Village,house,5,4.0,3344.0,12950000,Compass,214||40.7363219|-74.0018035,Manhattan
40.736608,-73.9822819,250 E 21st Street #12B,10010,Flatiron District,condo,3,2.0,2223.0,5750000,Brown Harris Stevens,250|12b|40.736608|-73.9822819,Manhattan
40.66911,-73.789339,130-24 150th Street,11436,Jamaica,house,5,2.0,2184.21,250000,Sowae Corp,130||40.66911|-73.789339,Queens
40.6499031,-73.7354706,254-06 Craft Avenue #2,11422,Jamaica,condo,6,2.37,3384.0,950000,Charles Rutenberg Realty Inc,254|2|40.6499031|-73.7354706,Queens
40.5784263,-74.105437,192 Colfax Avenue,10306,New Dorp,house,3,2.0,1100.0,585000,Keller Williams Realty Empire,192||40.5784263|-74.105437,Staten Island
40.6282935,-74.0379695,8200 Narrows Avenue,11209,Bayridge,house,6,6.0,2184.21,8750000,Brown Harris Stevens Brooklyn Llc,8200||40.6282935|-74.0379695,
40.6239146,-73.9291226,1509 E 48th Street,11234,Flatlands,house,3,1.0,1316.0,595000,"Tom Marco Real Estate, Inc.",1509||40.6239146|-73.9291226,Brooklyn
40.7267732,-74.002538,195 Prince Street #1R,10012,Soho,condo,1,1.0,625.0,215000,Engel & Volkers Brownstone Brooklyn,195|1r|40.7267732|-74.002538,Manhattan
40.7986579,-73.9679035,218 W 103rd Street,10025,Upper West Side,house,1,1.0,621.0,950000,Built By Toll Brothers,218||40.7986579|-73.9679035,Manhattan
40.6362368,-73.939679,850 E 39th Street,11210,Flatbush,house,3,1.0,1572.0,314000,Sowae Corp,850||40.6362368|-73.939679,Brooklyn
40.7700395,-73.9638872,110 E 71st Street,10021,Upper East Side,house,5,1.0,1000.0,395000,Brown Harris Stevens,110||40.7700395|-73.9638872,Manhattan
40.8429545,-73.8249591,1406 Mac Donough Place,10465,Pelham Bay,house,2,2.0,2184.21,600000,Prospes Real Estate Corp,1406||40.8429545|-73.8249591,Bronx
40.6105856,-74.1268175,78 Mountainview Avenue,10314,Tottenville,house,6,3.0,2520.0,790000,Exp Realty,78||40.6105856|-74.1268175,Staten Island
40.6170731,-74.0383836,9425 Shore Road #4F,11209,Fort Hamilton,condo,2,2.0,1100.0,539000,Stroffolino Realty Llc,9425|4f|40.6170731|-74.0383836,
40.8809873,-73.9224337,2501 Palisade Avenue #2,10463,Spuyten Duyvil,condo,4,2.0,1995.0,1295000,Douglas Elliman,2501|2|40.8809873|-73.9224337,Bronx
40.8690109,-73.8564445,2942 Lurting Avenue,10469,Riverdale,house,3,1.0,2184.21,245000,Sowae Corp,2942||40.8690109|-73.8564445,Bronx
40.8969146,-73.8654984,340 E 234th Street,10470,Co-op City,house,7,3.0,2385.0,400000,Americas Real Estate Advisors,340||40.8969146|-73.8654984,Bronx
40.782238,-73.9846322,25 Riverside Drive,10023,Upper West Side,house,8,8.0,12000.0,55000000,Douglas Elliman,25||40.782238|-73.9846322,Manhattan
40.6241766,-74.0216837,8015 6th Avenue Apt A1,11209,Bay Ridge,condo,1,1.0,1000.0,280000,Brown Harris Stevens,8015||40.6241766|-74.0216837,
40.5159004,-74.2314825,40 Adelphi Avenue,10309,Mid-Island,house,3,2.0,1440.0,899000,Top Choice Realty Llc,40||40.5159004|-74.2314825,Staten Island
40.6813429,-73.9981509,194 Carroll Street,11231,Red Hook,house,4,3.0,2184.21,649000,Cross Country Realty,194||40.6813429|-73.9981509,Brooklyn
40.5877991,-73.9216187,38 Dare Ct,11229,Gerritsen Beach,house,6,4.0,2184.21,739000,Charles Rutenberg Realty Inc,38||40.5877991|-73.9216187,
40.5247627,-74.1681035,31 4 Ct,10312,Huguenot,house,4,2.37,3000.0,1495000,Amerihomes Realty,31||40.5247627|-74.1681035,Staten Island
40.6680619,-73.9748375,591 4th Street,11215,Park Slope,house,5,2.0,3528.0,3950000,Douglas Elliman,591||40.6680619|-73.9748375,Brooklyn
40.7897507,-73.9487257,122 E 102nd Street #5B,10029,East Harlem,condo,2,1.0,979.0,325000,Avenues,122|5b|40.7897507|-73.9487257,Manhattan
40.7810583,-73.9808407,215 W 75th Street #4D,10023,Upper West Side,condo,3,1.0,2184.21,299999,Corcoran Chelsea/Flatiron,215|4d|40.7810583|-73.9808407,Manhattan
40.8235127,-73.9467514,327 Convent Avenue,10031,Harlem,house,6,5.0,4720.0,2695000,Sotheby'S International Realty,327||40.8235127|-73.9467514,Manhattan
40.6178184,-74.0151165,1151 83rd Street,11228,Bensonhurst,house,6,2.37,3958.0,4800000,Nobroker,1151||40.6178184|-74.0151165,Brooklyn
40.5423126,-74.1555672,364 Armstrong Avenue,10308,St. George,house,3,3.0,1360.0,694000,Compass Realty Central Inc.,364||40.5423126|-74.1555672,Staten Island
40.8726182,-73.8651768,761 S Oak Drive,10467,Baychester,house,4,2.0,2846.0,688888,Douglas Elliman,761||40.8726182|-73.8651768,Bronx
40.665357,-73.8770867,781 Shepherd Avenue,11208,East New York,house,4,2.0,1980.0,400000,Sowae Corp,781||40.665357|-73.8770867,Brooklyn
40.6837891,-73.8381042,103-12 104th Street,11417,Jamaica,house,5,2.0,2184.21,346000,Sowae Corp,103||40.6837891|-73.8381042,Queens
40.67538,-73.7472571,135-38 224th Street,11413,Jamaica,house,3,1.0,2184.21,265000,Sowae Corp,135||40.67538|-73.7472571,Queens
40.5604695,-74.1018925,57 Neutral Avenue,10306,New Dorp,house,3,2.0,1224.0,319000,Winzone Realty Inc,57||40.5604695|-74.1018925,Staten Island
40.772929,-73.9635462,45 E 74th Street,10021,Upper East Side,house,6,8.0,2184.21,24800000,Corcoran East Side,45||40.772929|-73.9635462,Manhattan
40.8307115,-73.9424229,421 W 154th Street,10032,Washington Heights,house,9,4.0,3276.0,1100000,Exp Realty,421||40.8307115|-73.9424229,Manhattan
40.5980695,-73.7632649,"29-18 Brookhaven Avenue, Far Rockaway",11691,Rockaway,house,6,2.0,2184.21,309000,Sowae Corp,29||40.5980695|-73.7632649,
40.723245,-73.7293286,237-14 93rd Road,11426,Jamaica,house,3,2.0,1522.0,650000,Keller Williams Realty Liberty,237||40.723245|-73.7293286,Queens
40.5387812,-74.193378,604 Lamont Avenue,10312,Huguenot,house,4,2.0,1975.0,799000,Rise Realty,604||40.5387812|-74.193378,Staten Island
40.8246371,-73.8072061,7C Edgewater Park,10465,Throgs Neck,house,3,2.0,1089.0,259000,Berkshire Hathaway Homeservices New York Properties,7c||40.8246371|-73.8072061,Bronx
40.5143019,-74.2044734,52 Indale Avenue,10309,Mid-Island,house,4,4.0,2704.0,1195000,Ditommaso Real Estate,52||40.5143019|-74.2044734,Staten Island
40.7143354,-74.0087443,37 Warren Street,10007,Tribeca,house,5,6.0,5499.0,17500000,Serhant,37||40.7143354|-74.0087443,Manhattan
40.6109595,-74.060351,20 Cliff Street #6B,10305,Port Richmond,condo,2,2.0,966.0,189000,Salmon Realty Group,20|6b|40.6109595|-74.060351,Staten Island
40.7881763,-73.7877051,206-4 Emily Road #37,11360,Murray Hill,condo,3,2.0,1200.0,759000,Midas Realty,206|37|40.7881763|-73.7877051,Queens
40.6366859,-73.9488175,579 E 29th Street,11210,Flatbush,house,4,1.0,2184.21,275000,Only Nine Realty Llc,579||40.6366859|-73.9488175,Brooklyn
40.7702318,-73.9610161,157 E 72nd Street #8I,10021,Upper East Side,condo,1,1.0,630.0,499000,Compass,157|8i|40.7702318|-73.9610161,Manhattan
40.8822913,-73.9137305,3021 Arlington Avenue,10463,Kingsbridge,house,3,2.37,2184.21,1249000,Trebach Realty Inc,3021||40.8822913|-73.9137305,Bronx
40.8224987,-73.8111568,61 Edgewater Park,10465,Throgs Neck,house,2,1.0,700.0,69900,Utopia Real Estate,61||40.8224987|-73.8111568,Bronx
40.755049,-73.9136386,32-40 48th Street,11103,Long Island City,house,12,6.0,5508.0,1150000,Rock Realty Inc,32||40.755049|-73.9136386,Queens
40.824015,-73.9502067,517 W 142nd Street,10031,Harlem,house,5,4.0,3740.0,1749900,"Island Advantage Rlty, Llc",517||40.824015|-73.9502067,Manhattan
40.7566899,-73.72075,26910 Grand Central Parkway Apt 21N,11005,Glen Oaks,condo,3,4.0,1993.0,1399000,Charles H. Greenthal Property,26910||40.7566899|-73.72075,
40.7302938,-73.8059248,163-4 71st Avenue #122,11365,Bayside,condo,3,2.0,1182.0,649000,Douglas Elliman,163|122|40.7302938|-73.8059248,Queens
40.8663864,-73.8878945,2774 Marion Avenue,10458,Morris Heights,house,5,2.0,1760.0,499000,Ww Realty Group Inc,2774||40.8663864|-73.8878945,Bronx
40.8176549,-73.8197053,2818 Miles Avenue,10465,Pelham Bay,house,5,4.0,3132.0,1050000,Julia B. Fee Sotheby'S International Realty,2818||40.8176549|-73.8197053,Bronx
40.7832598,-73.976047,137 W 80th Street,10024,Upper West Side,house,10,9.0,6425.0,5000000,Compass,137||40.7832598|-73.976047,Manhattan
40.574451,-74.0929448,16 Mapleton Avenue,10306,New Dorp,house,1,1.0,660.0,90000,Hot Homes Realty Llc.,16||40.574451|-74.0929448,Staten Island
40.7616,-73.9761913,9 W 54th Street,10019,Midtown West,house,11,10.0,24000.0,56000000,Douglas Elliman,9||40.7616|-73.9761913,Manhattan
40.8454501,-73.8209766,1544 Ohm Avenue,10465,Pelham Bay,house,3,2.37,1638.0,650000,Exp Realty,1544||40.8454501|-73.8209766,Bronx
40.7905714,-73.9753392,251 W 89th Street #6E,10024,Upper West Side,condo,4,3.0,1794.0,500000,Douglas Elliman,251|6e|40.7905714|-73.9753392,Manhattan
40.5731273,-74.089182,750 Patterson Avenue,10306,New Dorp,house,2,1.0,490.0,350000,Real Estate Property Group Llc,750||40.5731273|-74.089182,Staten Island
40.5595612,-73.9147409,"204-34 9th Avenue, Breezy Point",11697,Rockaway,house,4,2.0,2184.21,1099000,Corcoran Park Slope,204||40.5595612|-73.9147409,
40.8423705,-73.9234444,1383 Plimpton Avenue #1C,10452,Mott Haven,condo,1,1.0,450.0,90000,Re Max Boutique Realty,1383|1c|40.8423705|-73.9234444,Bronx
40.6590909,-73.8451972,158-35 87th Street,11414,Howard Beach,house,4,2.0,2184.21,839000,Laffey Real Estate,158||40.6590909|-73.8451972,Queens
40.688533,-73.796529,148-05 111th Avenue,11435,Jamaica,house,8,3.0,2184.21,659000,Century 21 Professional Realty,148||40.688533|-73.796529,Queens
40.5950021,-73.7577376,"178 Beach 24th Street, Far Rockaway",11691,Rockaway,house,3,1.0,2184.21,399999,Anthony Napolitano Homes,178||40.5950021|-73.7577376,
40.5997081,-73.9344974,3105 Avenue V #1F,11229,Gerritsen Beach,condo,3,1.0,2184.21,250000,Homefinders Of Si Inc.,3105|1f|40.5997081|-73.9344974,
40.6968706,-73.7390395,"115- 115 220th Street, Cambria Heights",11411,Cambria Heights,house,4,2.0,2244.0,650000,Epiphany Realty Llc,115||40.6968706|-73.7390395,Queens
40.5397292,-74.2155251,67 Dexter Avenue,10309,Mid-Island,house,3,4.0,3500.0,1165000,Re/Max Edge,67||40.5397292|-74.2155251,Staten Island
40.5302132,-74.1981906,447 Vernon Avenue,10309,Mid-Island,house,3,2.0,1150.0,729900,"Homes R Us Realty Of Ny, Inc.",447||40.5302132|-74.1981906,Staten Island
40.5805262,-74.0061062,3758 Bayview Avenue,11224,Coney Island,house,3,4.0,3150.0,1880000,Winzone Realty Inc,3758||40.5805262|-74.0061062,Brooklyn
40.7577991,-73.7159564,26910 Grand Central Parkway #22L,11005,Glen Oaks,condo,2,2.0,1549.0,449000,Charles H. Greenthal Property,26910|22l|40.7577991|-73.7159564,
40.57372,-73.8577786,"251 B 140 Street, Rockaway Park",11694,Rockaway,house,3,2.0,2250.0,1175000,Keller Williams City Views,251||40.57372|-73.8577786,
40.7336687,-74.000518,16 Gay Street,10014,West Village,house,3,2.0,2184.21,2750000,"Garfield, Leslie J. & Co., Inc.",16||40.7336687|-74.000518,Manhattan
40.657686,-73.8489131,159-03 83rd Street,11414,Howard Beach,house,3,2.0,2184.21,995000,Hauseit Llc,159||40.657686|-73.8489131,Queens
40.7086444,-74.0161953,"Liberty Court, 200 Rector Place #27E",10280,Battery Park City,condo,3,2.0,2000.0,2000000,Compass,|27e|40.7086444|-74.0161953,
40.6948972,-73.9925741,126 Pierrepont Street,11201,Brooklyn Heights,house,8,6.0,2184.21,15000000,Leven Real Estate,126||40.6948972|-73.9925741,Brooklyn
40.5861193,-74.1075476,25 Copperleaf Terrace,10304,Mariner's Harbor,house,4,6.0,8333.0,2800000,Re Max Edge,25||40.5861193|-74.1075476,Staten Island
40.7780417,-73.7739629,214-42 27th Avenue,11360,Murray Hill,house,5,4.0,3024.0,2600000,Keller Williams Rlty Landmark,214||40.7780417|-73.7739629,Queens
40.8229141,-73.9460622,51 Hamilton Terrace,10031,Harlem,house,6,6.0,6000.0,3500000,Corcoran West Side,51||40.8229141|-73.9460622,Manhattan
40.7887084,-73.9700091,609 Columbus Avenue #10J,10024,Upper West Side,condo,1,1.0,2184.21,550000,Corcoran East Side,609|10j|40.7887084|-73.9700091,Manhattan
40.6291962,-74.1518654,290 Lake Avenue,10303,Stapleton,house,3,4.0,2184.21,769000,E House Realty & Mgt. Inc.,290||40.6291962|-74.1518654,Staten Island
40.610206,-73.91065,2519 Mill Avenue,11234,Mill Basin,house,3,2.0,2400.0,675000,Talk Of The Town Realty C,2519||40.610206|-73.91065,Brooklyn
40.5273247,-74.1983282,48 Princewood Avenue,10309,Mid-Island,house,4,2.0,1238.0,879000,Gateway Arms Realty Corp.,48||40.5273247|-74.1983282,Staten Island
40.760703,-73.880887,30-36 88th Street,11369,Jackson Heights,house,3,2.0,2184.21,918888,Keller Williams Realty Landmark Ii,30||40.760703|-73.880887,Queens
40.6674938,-73.9832146,396A 9th Street,11215,South Slope,house,4,2.0,1892.0,2400000,Compass,396a||40.6674938|-73.9832146,Brooklyn
40.765022,-73.7422005,45-12 244th Street,11362,Fresh Meadows,house,6,2.37,3024.0,1730000,Jamie & Connie Real Estate Grp,45||40.765022|-73.7422005,Queens
40.8159966,-73.8881001,755 Coster Street,10474,Clason Point,house,5,2.0,2184.21,425000,Sowae Corp,755||40.8159966|-73.8881001,Bronx
40.7679673,-73.8246067,33-02 Parsons Boulevard,11354,Flushing,house,5,2.37,1450.0,2500000,East Coast Realtors Inc,33||40.7679673|-73.8246067,Queens
40.515251,-74.235145,336 Bethel Avenue,10307,Tottenville,house,4,4.0,2000.0,998000,Re Max Elite,336||40.515251|-74.235145,Staten Island
40.6296431,-74.1005274,222 Hart Boulevard,10301,St. George,house,4,4.0,2688.0,1195000,Coldwell Banker Advantage,222||40.6296431|-74.1005274,Staten Island
40.6164182,-74.0142443,1217 84th Street,11228,Bensonhurst,house,3,2.0,2052.0,1649000,Re Max Real Estate Professionals,1217||40.6164182|-74.0142443,Brooklyn
40.551184,-74.1840649,82 Vineland Avenue,10312,Huguenot,house,4,4.0,2100.0,955000,"Homes R Us Realty Of Ny, Inc.",82||40.551184|-74.1840649,Staten Island
40.677393,-73.800094,11737 141st Street,11436,Jamaica,house,6,3.0,2184.21,949000,Lj Realty Team Inc,11737||40.677393|-73.800094,Queens
40.7668312,-73.7911175,190-16 33rd Avenue,11358,Whitestone,house,3,2.0,1743.0,880000,Keller Williams Rlty Landmark,190||40.7668312|-73.7911175,Queens
40.7164224,-74.0101197,145 Reade Street,10013,Tribeca,house,4,2.37,10582.0,39995000,Compass,145||40.7164224|-74.0101197,Manhattan
40.7600248,-73.9653546,246 E 58th Street,10022,Midtown East,house,8,2.37,2184.21,1250000,Sotheby'S International Realty,246||40.7600248|-73.9653546,Manhattan
40.5788586,-74.11209,61 Prescott Avenue,10306,New Dorp,house,3,2.0,1784.0,899999,"Tom Crimmins Realty, Ltd.",61||40.5788586|-74.11209,Staten Island
40.7127599,-73.83433,"11818 Union Tpke Apt 7l, Kew Gardens",11415,Forest Hills,condo,1,1.0,750.0,198000,J Milo Real Estate,11818||40.7127599|-73.83433,Queens
40.8679701,-73.836565,2808 Wickham Avenue,10469,Riverdale,house,5,3.0,496.0,549000,Howard Hanna,2808||40.8679701|-73.836565,Bronx
40.6090909,-73.9762651,1568 W 2nd Street,11204,Midwood,house,3,4.0,1320.0,1088888,Re Max Elite,1568||40.6090909|-73.9762651,Brooklyn
40.8130775,-73.8063357,3079 Giegerich Place,10465,Throgs Neck,house,4,2.0,2686.0,888000,Carozza Nicholas M,3079||40.8130775|-73.8063357,Bronx
40.7120703,-73.9983258,45 Madison Street #1,10038,Civic Center,condo,3,1.0,230.0,65000,All American Realty Management,45|1|40.7120703|-73.9983258,Manhattan
40.7697773,-73.9014478,21-89 47th Street,11105,Astoria,house,3,2.0,2184.21,1449999,Real Broker Ny Llc,21||40.7697773|-73.9014478,Queens
40.7758194,-73.9785263,45 W 70th Street,10023,Upper West Side,house,5,5.0,2184.21,14900000,Serhant,45||40.7758194|-73.9785263,Manhattan
40.686947,-73.9261885,871 Putnam Avenue,11221,Bushwick,house,5,2.0,2250.0,1695000,Flateau Realty Corp,871||40.686947|-73.9261885,Brooklyn
40.7107701,-73.8406935,152 Whitson Street,11375,Forest Hills,house,5,2.37,4100.0,2499000,Exp Realty,152||40.7107701|-73.8406935,Queens
40.6965326,-73.9839654,59 Duffield Street,11201,Downtown Brooklyn,house,4,4.0,2508.0,1970000,Sotheby'S International Realty,59||40.6965326|-73.9839654,Brooklyn
40.673976,-73.973535,905 Union Street Apartment 1,11215,Park Slope,condo,2,2.0,2184.21,1895000,Compass,905||40.673976|-73.973535,Brooklyn
40.6137764,-74.1600305,46 Kirshon Avenue,10314,Tottenville,house,3,2.37,1248.0,689000,Ditommaso Real Estate,46||40.6137764|-74.1600305,Staten Island
40.5803331,-74.0885167,219 Slater Boulevard,10305,Port Richmond,house,3,2.0,1440.0,649999,Martino Realty Group,219||40.5803331|-74.0885167,Staten Island
40.5993523,-74.0953882,74 Holly Street,10304,Mariner's Harbor,house,3,2.0,864.0,669000,Exp Realty,74||40.5993523|-74.0953882,Staten Island
40.6222734,-73.924094,1485 E 53rd Street,11234,Flatlands,house,3,2.0,825.0,800000,Corcoran Westside Columbus,1485||40.6222734|-73.924094,Brooklyn
40.7252187,-73.9929764,10 Bleecker Street #5B,10012,NoHo,condo,1,2.0,2184.21,2375000,Compass,10|5b|40.7252187|-73.9929764,Manhattan
40.6738566,-73.9506085,726 Nostrand Avenue.,11216,Bed-Stuy,house,6,6.0,6688.0,2400000,Corcoran West Side Gallery,726||40.6738566|-73.9506085,Brooklyn
40.574103,-74.0931668,231 Freeborn Street,10306,New Dorp,house,2,1.0,586.0,390000,Exp Realty Bkny,231||40.574103|-74.0931668,Staten Island
40.737308,-74.0046666,302 W 12th Street Apt 7A,10014,West Village,condo,1,1.0,2184.21,2250000,Compass,302||40.737308|-74.0046666,Manhattan
40.5273093,-74.1753435,308 Poillon Avenue,10312,Huguenot,house,4,2.37,2700.0,1450000,Re Max Edge,308||40.5273093|-74.1753435,Staten Island
40.6898164,-73.9062474,627 Wilson Avenue #3,11207,Bushwick,condo,2,2.0,792.0,725000,Rockaway Properties,627|3|40.6898164|-73.9062474,Brooklyn
40.8968048,-73.9087471,4901 Henry Hudson Parkway W #5F,10471,Eastchester,condo,1,1.0,2184.21,269000,Sotheby'S International Realty,4901|5f|40.8968048|-73.9087471,Bronx
40.7651716,-73.9678719,575 Park Avenue # 1101,10065,Upper East Side,condo,2,2.0,2184.21,695000,Compass,575|1101|40.7651716|-73.9678719,Manhattan
40.8109146,-73.853921,246 Newman Avenue,10473,East Bronx,house,3,2.0,2184.21,1300000,Winzone Realty Inc,246||40.8109146|-73.853921,Bronx
40.5866482,-73.9845156,2475 W 16th Street #19H,11214,Bath Beach,condo,3,2.0,1250.0,459000,Ilite Realty Inc,2475|19h|40.5866482|-73.9845156,Brooklyn
40.621814,-74.1406264,596 College Avenue,10302,Port Richmond,house,3,2.0,1008.0,689999,"Robert Defalco Realty, Inc.",596||40.621814|-74.1406264,Staten Island
40.7381853,-73.8581248,"58-03 Calloway Street, Corona",11368,Corona,house,3,2.0,1405.0,425000,Winzone Realty Inc,58||40.7381853|-73.8581248,Queens
40.764989,-73.9655331,166 E 64th Street,10065,Upper East Side,house,5,4.0,6800.0,10000000,Douglas Elliman,166||40.764989|-73.9655331,Manhattan
40.784623,-73.9826586,67 Riverside Drive #1C,10024,Upper West Side,condo,2,2.0,2184.21,1525000,Byson Real Estate Company,67|1c|40.784623|-73.9826586,Manhattan
40.583514,-73.9738903,2619 Shore Parkway,11223,Brighton Beach,house,9,6.0,3519.0,1499000,Brp Associates Inc,2619||40.583514|-73.9738903,Brooklyn
40.5939378,-74.1843153,62 Simmons Lane,10314,Chelsea,house,3,2.0,1480.0,519000,"Robert Defalco Realty, Inc.",62||40.5939378|-74.1843153,Staten Island
40.7855174,-73.7797613,212- 79 16th Avenue #183,11360,Murray Hill,condo,2,1.0,2184.21,358000,Queens Quality Management,212|183|40.7855174|-73.7797613,Queens
40.7455051,-74.0016003,360 W 22nd Street #9J,10011,Chelsea,condo,3,1.0,2184.21,975000,Compass,360|9j|40.7455051|-74.0016003,Manhattan
40.747472,-73.9796788,123 E 35th Street,10016,Murray Hill,house,12,10.0,11638.0,29200000,Christie'S Int.Real Estate Group,123||40.747472|-73.9796788,Manhattan
40.6351164,-74.0311609,138 71st Street Apt E10,11209,Bay Ridge,condo,2,1.0,975.0,498000,Pride Estates,138||40.6351164|-74.0311609,
40.7839299,-73.77643,1805 215th Street Apt 4N,11360,Bay Terrace (Queens),condo,1,2.0,900.0,385000,Laffey Real Estate,1805||40.7839299|-73.77643,Queens
40.8451067,-73.8601577,851 Van Nest Avenue,10462,Pelham Parkway,house,6,2.0,3144.0,999000,Progress Realty Inc.,851||40.8451067|-73.8601577,Bronx
40.7531191,-73.8818757,34-41 85th Street #3A,11372,Forest Hills,condo,1,1.0,2184.21,399000,Compass,34|3a|40.7531191|-73.8818757,Queens
40.5387352,-74.1423893,77 Harbour Ct,10308,St. George,house,4,4.0,2800.0,599000,Staten Island Premiere Properties,77||40.5387352|-74.1423893,Staten Island
40.521278,-74.2230351,70 Savo Loop,10309,Mid-Island,house,4,2.37,1800.0,829888,Staten Island Premiere Properties,70||40.521278|-74.2230351,Staten Island
40.5953144,-74.1628286,159 Freedom Avenue,10314,Tottenville,house,3,2.0,1548.0,699998,"Dynasty Real Estate, Inc.",159||40.5953144|-74.1628286,Staten Island
40.7186003,-73.8453488,20 Continental Avenue #5F,11375,Forest Hills,condo,5,2.0,2184.21,1088000,Daniel Gale Sotheby'S International Realty,20|5f|40.7186003|-73.8453488,Queens
40.8808173,-73.8350832,3426 Boller Avenue,10475,City Island,house,6,2.0,1280.0,999000,Ww Realty Group Inc,3426||40.8808173|-73.8350832,Bronx
40.7075546,-73.9036964,677 Grandview Avenue,11385,Jackson Heights,house,15,9.0,2184.21,1188888,New York Realty Minimax,677||40.7075546|-73.9036964,Queens
40.7824499,-73.7765099,2345 Bell Boulevard Apt 5F,11360,Murray Hill,condo,1,1.0,700.0,265000,Nexthome Residential,2345||40.7824499|-73.7765099,Queens
40.5894827,-73.9395372,3901 Nostrand Avenue. #4C,11235,Sheepshead Bay,condo,1,1.0,845.0,288000,"Maximillion Realty, Inc.",3901|4c|40.5894827|-73.9395372,Brooklyn
40.7640501,-73.964336,205 E 63rd Street #11E,10065,Upper East Side,condo,3,2.0,1750.0,999995,Compass,205|11e|40.7640501|-73.964336,Manhattan
40.7708195,-73.9595235,200 E 74th Street #6B,10021,Upper East Side,condo,2,2.0,1350.0,1495000,Corcoran East Side,200|6b|40.7708195|-73.9595235,Manhattan
40.7699425,-73.9583558,235 E 73rd Street #4B,10021,Upper East Side,condo,1,1.0,1000.0,925000,Corcoran Park Avenue South,235|4b|40.7699425|-73.9583558,Manhattan
40.7050355,-73.8241699,84-70 129th Street #5U,11415,Jamaica,condo,2,1.0,2184.21,349000,Realty Connect Usa Llc,84|5u|40.7050355|-73.8241699,Queens
40.7573479,-73.9614914,444 E 57th Street #2D,10022,Midtown East,condo,4,4.0,3000.0,2000000,Ai Realty Brokerage Llc,444|2d|40.7573479|-73.9614914,Manhattan
40.5905451,-73.9910402,8895 26th Avenue #5A,11214,Gravesend,condo,3,2.0,1376.0,839000,Century 21 Realty First,8895|5a|40.5905451|-73.9910402,Brooklyn
40.7157399,-73.83672,11139 76th Road Apt E6,11375,Forest Hills,condo,1,1.0,820.0,329000,Platinum Properties Of Long Island,11139||40.7157399|-73.83672,Queens
40.8796143,-73.856153,948 E 217th Street,10469,Riverdale,house,6,3.0,3683.0,899000,Keller Williams Hudson Valley,948||40.8796143|-73.856153,Bronx
40.6610456,-73.9019953,534 Powell Street,11212,Brownsville,house,3,2.0,2184.21,615000,Citadel Circle Realty,534||40.6610456|-73.9019953,Brooklyn
40.7917785,-73.9406204,309 E 108th Street #5F,10029,East Harlem,condo,2,2.0,1257.0,800000,Sotheby'S International Realty,309|5f|40.7917785|-73.9406204,Manhattan
40.6123868,-74.1511288,527 Willow Road E #2,10314,Graniteville,condo,2,2.0,1248.0,430000,Coldwell Banker Advantage,527|2|40.6123868|-74.1511288,Staten Island
40.6166867,-74.1576647,625 Goethals Road N,10314,Tottenville,house,3,2.0,1288.0,499000,Jessica Viola,625||40.6166867|-74.1576647,Staten Island
40.7047878,-73.8344551,83-80 118th Street #3A,11415,Jamaica,condo,3,2.0,1400.0,439500,Keller Williams Realty Liberty,83|3a|40.7047878|-73.8344551,Queens
40.7123992,-73.8339305,"118-18 Union Tpke #17G, Kew Gardens",11415,Jamaica,condo,1,1.0,2184.21,299000,Prime Properties Long Island,118|17g|40.7123992|-73.8339305,Queens
40.6050685,-74.0969483,60 Lyman Place,10304,Mariner's Harbor,house,8,2.37,6493.0,2580000,"Robert Defalco Realty, Inc.",60||40.6050685|-74.0969483,Staten Island
40.840459,-73.8542045,1700 Metropolitan Avenue,10462,Pelham Parkway,house,1,1.0,613.0,200000,Re Max Distinguished Homes & Properties,1700||40.840459|-73.8542045,Bronx
40.8189893,-73.953108,504 W 135th Street #1B,10031,Harlem,condo,3,1.0,2184.21,425000,Oxford Property Group,504|1b|40.8189893|-73.953108,Manhattan
40.8366623,-73.9239586,1185 Anderson Avenue #2E,10452,Mott Haven,condo,1,1.0,850.0,69000,Besmatch Real Estate,1185|2e|40.8366623|-73.9239586,Bronx
40.8018548,-73.9672877,272 W 107th Street #8D,10025,Upper West Side,condo,3,2.0,1546.0,1995000,Corcoran West Side Gallery,272|8d|40.8018548|-73.9672877,Manhattan
40.8028416,-73.9670229,255 W 108th Street #1B,10025,Upper West Side,condo,1,1.0,620.0,230000,Compass,255|1b|40.8028416|-73.9670229,Manhattan
40.7130136,-73.8230375,82-35 134th Street #2D,11435,Briarwood,condo,1,1.0,590.0,220000,Crifasi Real Estate Inc,82|2d|40.7130136|-73.8230375,Queens
40.756144,-73.8213672,42-40 Bowne Street #6F,11355,Flushing,condo,3,1.0,2184.21,198000,E Realty International Corp,42|6f|40.756144|-73.8213672,Queens
40.7382884,-73.9851838,48 Gramercy Park N #1B,10010,Flatiron District,condo,1,2.0,2184.21,1495000,Brown Harris Stevens,48|1b|40.7382884|-73.9851838,Manhattan
40.7779975,-73.9445342,520 E 90th Street #1B,10128,Upper East Side,condo,1,1.0,615.0,475000,Corcoran West Side,520|1b|40.7779975|-73.9445342,Manhattan
40.6779049,-73.733881,"234-4 131st Avenue #2, Rosedale",11422,Laurelton,condo,2,1.0,2184.21,199900,Rad Marketing Corp,234|2|40.6779049|-73.733881,Queens
40.5882505,-74.1087291,91 Flagg Ct,10304,Mariner's Harbor,house,2,2.0,1444.0,1150000,Joanne Costa Realty,91||40.5882505|-74.1087291,Staten Island
40.6683947,-73.9762195,530 4th Street,11215,Park Slope,house,3,2.0,2184.21,1575000,Corcoran Park Slope,530||40.6683947|-73.9762195,Brooklyn
40.7562792,-73.8758052,33-05 92nd Street #1B,11372,Jackson Heights,condo,1,1.0,2184.21,229000,Keller Williams Realty Landmark Ii,33|1b|40.7562792|-73.8758052,Queens
40.6914843,-73.9676428,122 Willoughby Avenue,11205,Williamsburg,house,8,4.0,2184.21,2700000,Corcoran Soho,122||40.6914843|-73.9676428,Brooklyn
40.8236857,-73.8611313,1860 Story Avenue # 36-b,10473,Soundview Bruckner,condo,2,2.0,936.0,320000,C J Robin'S Real Estate,1860|36-b|40.8236857|-73.8611313,Bronx
40.6196386,-73.9707307,1275 E 5th Street #6A,11230,Midwood,condo,2,1.0,700.0,295000,Re Max Edge,1275|6a|40.6196386|-73.9707307,Brooklyn
40.6498755,-73.9375091,4211 Snyder Avenue,11203,Flatbush,house,3,2.0,2184.21,550000,Spire Group Inc.,4211||40.6498755|-73.9375091,Brooklyn
40.8362269,-73.8612346,1439 Metropolitan Avenue #6A,10462,Pelham Parkway,condo,2,1.0,1000.0,285000,Serhant,1439|6a|40.8362269|-73.8612346,Bronx
40.743059,-73.880983,8330 Vietor Avenue Apartment 414,11373,Elmhurst,condo,1,1.0,800.0,328000,Voro Llc,8330||40.743059|-73.880983,Queens
40.774158,-73.7957477,25-02 169th Street,11358,Flushing,house,4,3.0,2184.21,1388000,Skylux Realty,25||40.774158|-73.7957477,Queens
40.6949321,-73.9928542,120 Pierrepont Street,11201,Brooklyn Heights,house,10,10.0,2184.21,3000000,Exp Realty,120||40.6949321|-73.9928542,Brooklyn
40.7032697,-73.9088462,"662 Seneca Avenue, Ridgewood",11385,Jackson Heights,house,7,6.0,2184.21,2198888,New York Realty Minimax,662||40.7032697|-73.9088462,Queens
40.8244358,-73.8633737,936 Taylor Avenue,10473,East Bronx,house,6,2.0,2310.0,650000,Howard Hanna,936||40.8244358|-73.8633737,Bronx
40.7598542,-73.9874427,247 W 46th Street Apt 1506,10036,Midtown West / Hell's Kitchen,condo,1,2.0,890.0,1100000,Corcoran Park Avenue South,247||40.7598542|-73.9874427,Manhattan
40.6820924,-73.9393924,282 Macon Street,11216,Bed-Stuy,house,5,4.0,4050.0,2649000,Gosen Properties Inc,282||40.6820924|-73.9393924,Brooklyn
40.6662599,-73.9870141,299 13th Street #3D,11215,Park Slope,condo,2,1.0,800.0,849000,Corcoran Park Slope,299|3d|40.6662599|-73.9870141,Brooklyn
40.778004,-73.962547,995 5th Avenue #11B,10028,Upper East Side,condo,2,2.0,2184.21,6500000,Sotheby'S International Realty,995|11b|40.778004|-73.962547,Manhattan
40.777244,-73.9868738,165 West End Avenue #16C,10023,Upper West Side,condo,3,1.0,550.0,560000,Houlihan Lawrence,165|16c|40.777244|-73.9868738,Manhattan
40.6339124,-74.0058434,946 59th Street #4B,11219,Sunset Park,condo,2,1.0,900.0,418888,Re Max Elite,946|4b|40.6339124|-74.0058434,
40.6083914,-74.0100209,99 Bay 11th Street,11228,Bath Beach,house,3,3.0,3978.0,2600000,Re Max Real Estate Professionals,99||40.6083914|-74.0100209,Brooklyn
40.8728082,-73.8469489,3214 Seymour Avenue,10469,Riverdale,house,8,2.0,2160.0,899000,Velez Realty Corp,3214||40.8728082|-73.8469489,Bronx
40.6597134,-73.9195979,309 E 96th Street,11212,Brownsville,house,8,3.0,2860.0,979000,Century 21 Dawn'S Gold Realty,309||40.6597134|-73.9195979,Brooklyn
40.7282899,-73.8472,6738 108th Street Apt D5,11375,Forest Hills,condo,1,1.0,2184.21,199000,Sbny Re,6738||40.7282899|-73.8472,Queens
40.751918,-73.9698335,310 E 46th Street #6D,10017,Midtown East,condo,3,1.0,2184.21,815000,Sotheby'S International Realty,310|6d|40.751918|-73.9698335,Manhattan
40.7712538,-73.950858,460 E 79th Street #9F,10075,Upper East Side,condo,1,1.0,800.0,1025000,Signature Premier Properties,460|9f|40.7712538|-73.950858,Manhattan
40.7645034,-73.9648503,188 E 64th Street Apt 802,10065,Upper East Side,condo,1,2.0,920.0,1375000,Compass,188||40.7645034|-73.9648503,Manhattan
40.8539526,-73.9345678,105 Bennett Avenue #21A,10033,Washington Heights,condo,3,2.0,1437.0,875000,Keller Williams Nyc,105|21a|40.8539526|-73.9345678,Manhattan
40.5902653,-73.9455056,2535 E 24th Street,11235,Sheepshead Bay,house,6,3.0,3000.0,1350000,"Maximillion Realty, Inc.",2535||40.5902653|-73.9455056,Brooklyn
40.6360957,-73.9018295,1408 Remsen Avenue,11236,Canarsie,house,7,3.0,2184.21,989000,Corcoran Williamsburg Bedford,1408||40.6360957|-73.9018295,Brooklyn
40.6402659,-74.110402,156 Davis Avenue,10310,South Beach,house,4,4.0,2945.0,815156,Scott Dobrin Realty,156||40.6402659|-74.110402,Staten Island
40.5813374,-73.9589282,11 Brighton 10th Path,11235,Brighton Beach,house,3,5.0,2560.0,1949000,Momentum Real Estate Llc,11||40.5813374|-73.9589282,Brooklyn
40.5967151,-73.7696424,"418 Beach 37th Street, Far Rockaway",11691,Rockaway,house,5,2.0,1893.0,669000,Redfin Real Estate,418||40.5967151|-73.7696424,
40.6468871,-73.8907758,10716 Avenue J,11236,Canarsie,house,4,2.0,2184.21,900500,Fillmore Real Estate,10716||40.6468871|-73.8907758,Brooklyn
40.7701914,-73.9590118,215 E 73rd Street #4A,10021,Upper East Side,condo,3,3.0,2184.21,1465000,Clas,215|4a|40.7701914|-73.9590118,Manhattan
40.7604194,-73.9968086,529 W 42nd Street #2G,10036,Midtown West / Hell's Kitchen,condo,3,1.0,1100.0,899000,Sotheby'S International Realty,529|2g|40.7604194|-73.9968086,Manhattan
40.7078844,-74.0140879,88 Greenwich Street Apt 2307,10006,Financial District,condo,1,1.0,726.0,1100000,Compass,88||40.7078844|-74.0140879,Manhattan
40.6662035,-73.8525027,151-42 82nd Street,11414,Jamaica,house,6,5.0,2184.21,1199000,"Century 21 Amiable Realty Group Ii, Inc.",151||40.6662035|-73.8525027,Queens
40.7989043,-73.9604812,12 W 107th Street #2B,10025,Upper West Side,condo,2,1.0,2184.21,325000,Corcoran Chelsea/Flatiron,12|2b|40.7989043|-73.9604812,Manhattan
40.638069,-74.1627747,3100 Richmond Terrace,10303,Stapleton,house,4,3.0,1176.0,599000,Coldwell Banker American Homes,3100||40.638069|-74.1627747,Staten Island
40.700194,-73.8907488,74-06 64th Lane,11385,Jackson Heights,house,4,3.0,2184.21,1230000,New York Realty Minimax,74||40.700194|-73.8907488,Queens
40.7573949,-73.9606545,2 Sutton Place S,10022,Midtown East,house,3,3.0,2184.21,3950000,Brown Harris Stevens,2||40.7573949|-73.9606545,Manhattan
40.5184841,-74.2244185,6659 Amboy Road,10309,Mid-Island,house,7,6.0,10000.0,2147483647,Anne Lopa Real Estate,6659||40.5184841|-74.2244185,Staten Island
40.6828535,-73.8769965,188 Richmond Street,11208,East New York,house,10,5.0,3383.0,1350000,Keller Williams Realty Landmark Ii,188||40.6828535|-73.8769965,Brooklyn
40.6336127,-73.9276041,1124 E 51st Street,11234,Flatlands,house,5,3.0,1800.0,799000,Onespace Realty Group Llc,1124||40.6336127|-73.9276041,Brooklyn
40.5813757,-74.1131912,1233 Todt Hill Road,10304,New Dorp,house,5,3.0,5600.0,1599000,Keller Williams Realty Greater Nassau,1233||40.5813757|-74.1131912,Staten Island
40.5065922,-74.2393503,346 George Street,10307,Tottenville,house,4,4.0,2755.0,1299900,"Robert Defalco Realty, Inc.",346||40.5065922|-74.2393503,Staten Island
40.6939582,-73.9943695,100 Remsen Street #3F,11201,Brooklyn Heights,condo,1,1.0,2184.21,370000,Corcoran Brooklyn Heights,100|3f|40.6939582|-73.9943695,Brooklyn
40.8434062,-73.9407947,635 W 170th Street #2C,10032,Washington Heights,condo,3,1.0,2184.21,3225,Living Ny,635|2c|40.8434062|-73.9407947,Manhattan
40.7464683,-73.9872992,11 W 30th Street #11F,10001,Chelsea,condo,3,2.0,2184.21,3649000,Douglas Elliman,11|11f|40.7464683|-73.9872992,Manhattan
40.5768936,-74.0048793,3743 Neptune Avenue,11224,Coney Island,house,5,3.0,2324.0,860000,"Empire City Properties, Llc",3743||40.5768936|-74.0048793,Brooklyn
40.611142,-74.0905357,80 Longview Road,10304,Mariner's Harbor,house,3,4.0,2205.0,765000,Re/Max Edge,80||40.611142|-74.0905357,Staten Island
40.6491203,-73.9440658,3500 Snyder Avenue #5N,11203,Flatbush,condo,1,1.0,750.0,259000,Douglas Elliman,3500|5n|40.6491203|-73.9440658,Brooklyn
40.6471477,-73.9489423,1601 Nostrand Avenue.,11226,Flatbush,house,8,3.0,3135.0,1500000,The Turner Realty Group Inc,1601||40.6471477|-73.9489423,Brooklyn
40.856444,-73.9377616,340 Cabrini Boulevard Apt 501,10040,Inwood,condo,2,2.0,1005.0,850000,Brown Harris Stevens,340||40.856444|-73.9377616,Manhattan
40.8434062,-73.9407947,635 W 170th Street #4F,10032,Washington Heights,condo,2,1.0,2184.21,2494,Living Ny,635|4f|40.8434062|-73.9407947,Manhattan
40.6372545,-73.9002674,1368 E 92nd Street #300,11236,Canarsie,condo,1,1.0,2184.21,99000,5 Boro Realty Corp,1368|300|40.6372545|-73.9002674,Brooklyn
40.6453011,-73.9723049,192 E 8th Street #1C,11218,Borough Park,condo,1,1.0,750.0,535000,Douglas Elliman,192|1c|40.6453011|-73.9723049,Brooklyn
40.5487767,-74.1629254,358 Lamoka Avenue,10312,Huguenot,house,4,2.0,2342.0,849998,Coldwell Banker Advantage,358||40.5487767|-74.1629254,Staten Island
40.807426,-73.9535703,2235 Frederick Douglass Boulevard #7K,10027,Central Harlem,condo,2,2.0,2184.21,1100000,Sotheby'S International Realty,2235|7k|40.807426|-73.9535703,Manhattan
40.7190856,-73.9060914,60-17 59th Avenue,11378,Flushing,house,5,3.0,1574.0,998000,Skylimit Realty Group,60||40.7190856|-73.9060914,Queens
40.634316,-73.9462919,3115 Glenwood Road,11210,Flatbush,house,3,2.0,2184.21,1500000,Century 21 Achievers,3115||40.634316|-73.9462919,Brooklyn
40.8920958,-73.8487361,1779 Edenwald Avenue,10466,Van Nest,house,6,3.0,2860.0,875000,New Concept Sheiks Realty Inc.,1779||40.8920958|-73.8487361,Bronx
40.7449256,-74.0057175,456 W 19th Street,10011,Chelsea,house,1,2.0,1144.0,2350000,Compass,456||40.7449256|-74.0057175,Manhattan
40.8979269,-73.8463057,4346 Edson Avenue,10466,Van Nest,house,5,2.0,1908.0,850000,Besmatch Real Estate,4346||40.8979269|-73.8463057,Bronx
40.7295412,-73.9913066,445 Lafayette Street #14A,10003,NoHo,condo,3,2.37,2248.0,4000000,Sotheby'S International Realty,445|14a|40.7295412|-73.9913066,Manhattan
40.7687538,-73.9631311,955 Lexington Avenue #5C,10021,Upper East Side,condo,3,2.0,2184.21,1200000,Douglas Elliman,955|5c|40.7687538|-73.9631311,Manhattan
40.7174584,-74.0038831,67 Franklin Street,10013,Lower Manhattan,house,4,4.0,3809.0,12000000,Serhant,67||40.7174584|-74.0038831,Manhattan
40.7895034,-73.9769713,269 W 87th Street #6C,10024,Upper West Side,condo,2,2.0,2184.21,1300000,Christie'S Int.Real Estate Group,269|6c|40.7895034|-73.9769713,Manhattan
40.7804721,-73.9871434,240 Riverside Boulevard #3B,10069,Midtown West / Hell's Kitchen,condo,3,1.0,585.0,799000,"Nest Seekers International, Westside",240|3b|40.7804721|-73.9871434,Manhattan
40.7488879,-73.9723947,314 E 41st Street Apt 303B,10017,Murray Hill,condo,3,1.0,250.0,339000,Steven Corcoran Real Estate Llc,314||40.7488879|-73.9723947,Manhattan
40.8270095,-73.8766285,1126 Ward Avenue,10472,Wakefield,house,7,5.0,2680.0,875000,Re Max Distinguished Homes & Properties,1126||40.8270095|-73.8766285,Bronx
40.8333931,-73.8727914,1341 Fteley Avenue,10472,Wakefield,house,7,2.0,2296.0,799000,Keller Williams Realty Nyc Grp,1341||40.8333931|-73.8727914,Bronx
40.7128326,-73.7435779,102-15 215th Street,11429,Jamaica,house,2,1.0,1380.0,285000,Sowae Corp,102||40.7128326|-73.7435779,Queens
40.6962962,-73.9720502,181 Park Avenue,11205,Williamsburg,house,5,4.0,1340.0,2499000,Century 21 Aa Realty,181||40.6962962|-73.9720502,Brooklyn
40.8767388,-73.911189,42 Adrian Avenue,10463,Kingsbridge,house,4,2.0,1440.0,795000,Douglas Elliman,42||40.8767388|-73.911189,Bronx
40.7708932,-73.9586258,207 E 74th Street #8B,10021,Upper East Side,condo,2,2.0,2184.21,1799995,Douglas Elliman,207|8b|40.7708932|-73.9586258,Manhattan
40.6505528,-73.8316736,"164-31 99th Street, Howard Beach",11414,Jamaica,house,3,2.37,1224.0,250000,Sowae Corp,164||40.6505528|-73.8316736,Queens
40.7798567,-73.9873973,220 Riverside Boulevard #24B,10069,Upper West Side,condo,3,3.0,3000.0,5999000,"Nest Seekers International, Internationa",220|24b|40.7798567|-73.9873973,Manhattan
40.7299787,-73.7310756,88-08 Gettysburg Street,11426,Jamaica,house,3,2.0,1606.0,668000,Douglas Elliman,88||40.7299787|-73.7310756,Queens
40.6153952,-74.1610855,102 Lamberts Lane,10314,Tottenville,house,3,2.0,1470.0,699900,Hand In Hand Real Estate,102||40.6153952|-74.1610855,Staten Island
40.6800067,-73.9982111,75 2nd Place,11231,Red Hook,house,4,4.0,4600.0,5295000,Brownstone Real Estate Llc,75||40.6800067|-73.9982111,Brooklyn
40.710456,-73.991235,252 South Street #26,10002,Lower East Side,condo,2,2.0,1123.0,2265000,Extell Marketing Group Llc,252|26|40.710456|-73.991235,Manhattan
40.7607942,-73.8258766,14205 Roosevelt Avenue Apt 435,11354,Flushing,condo,2,1.0,950.0,459000,Exp Realty,14205||40.7607942|-73.8258766,Queens
40.5239722,-74.2213406,7 Stalie Ct,10309,Prince's Bay,house,4,2.37,2900.0,1369000,J Milo Real Estate,7||40.5239722|-74.2213406,Staten Island
40.7294367,-73.7125595,87-45 253rd Street,11426,Jamaica,house,4,2.0,2184.21,879000,True North Realty Luxury Homes,87||40.7294367|-73.7125595,Queens
40.7945743,-73.9434214,"Mirada, 161 E 110th Street #6G",10029,East Harlem,condo,1,1.0,679.0,559000,Douglas Elliman,|6g|40.7945743|-73.9434214,Manhattan
40.7019014,-73.8256776,"86-27 125th Street, Richmond Hill",11418,Jamaica,house,4,3.0,2184.21,869888,New York Realty Minimax,86||40.7019014|-73.8256776,Queens
40.7138975,-73.8970229,62-24 65th Street,11379,Flushing,house,3,2.0,2184.21,799888,Keller Williams Rlty Landmark,62||40.7138975|-73.8970229,Queens
40.6165347,-74.1507186,29 Canterbury Avenue,10314,Tottenville,house,4,1.0,1040.0,749000,Berkshire Hathaway Homeservices Cangiano Estates,29||40.6165347|-74.1507186,Staten Island
40.6886004,-73.7568067,119-44 193rd Street,11412,Jamaica,house,2,3.0,2184.21,499000,Nobroker,119||40.6886004|-73.7568067,Queens
40.7895034,-73.9769713,269 W 87th Street #7B,10024,Upper West Side,condo,3,4.0,2193.0,1295000,Douglas Elliman,269|7b|40.7895034|-73.9769713,Manhattan
40.5409077,-74.1964937,640 Sheldon Avenue,10312,Huguenot,house,3,2.0,2242.0,879900,J. Milo Real Estate Ltd,640||40.5409077|-74.1964937,Staten Island
40.8131429,-73.808397,8 Magnolia Place,10465,Pelham Bay,house,2,2.0,1150.0,400000,Corcoran Soho,8||40.8131429|-73.808397,Bronx
40.8524948,-73.9151397,1839 Andrews Avenue S,10453,Morrisania,house,6,2.37,2184.21,699999,Century 21 Dawns Gold,1839||40.8524948|-73.9151397,Bronx
40.6541622,-73.8846778,1065 Vermont Street #4G,11207,East New York,condo,1,1.0,666.0,289000,Corcoran Bedford Stuyvesant,1065|4g|40.6541622|-73.8846778,Brooklyn
40.6826476,-73.9434923,435 Tompkins Avenue #305,11216,Bedford-Stuyvesant,condo,1,1.0,616.0,699000,Compass,435|305|40.6826476|-73.9434923,Brooklyn
40.618915,-73.931211,4515 Avenue N #5,11234,Flatlands,condo,3,2.37,2184.21,5800,Century 21 Realty First,4515|5|40.618915|-73.931211,Brooklyn
40.6268305,-74.1471405,16 Renfrew Place,10303,Stapleton,house,6,2.0,3100.0,479000,Liberty Chateau Realty Inc,16||40.6268305|-74.1471405,Staten Island
40.6826476,-73.9434923,435 Tompkins Avenue #703,11216,Bedford-Stuyvesant,condo,2,2.0,1002.0,1355000,Compass,435|703|40.6826476|-73.9434923,Brooklyn
40.6826476,-73.9434923,435 Tompkins Avenue #602,11216,Bedford-Stuyvesant,condo,2,2.0,882.0,1225000,Compass,435|602|40.6826476|-73.9434923,Brooklyn
40.7779497,-73.959448,960 Park Avenue #3W,10028,Upper East Side,condo,4,6.0,4531.0,9999000,"Island Advantage Rlty, Llc",960|3w|40.7779497|-73.959448,Manhattan
40.8560699,-73.8688751,2191 Bolton Street #5E,10462,Pelham Parkway,condo,3,1.0,656.0,105000,"Bizzarro Agency, Llc",2191|5e|40.8560699|-73.8688751,Bronx
40.6162917,-73.929914,5423 Avenue R,11234,Marine Park,house,3,1.0,952.0,300000,Nella Management Llc,5423||40.6162917|-73.929914,Brooklyn
40.8181836,-73.812739,232 Throgs Neck Boulevard,10465,Throgs Neck,house,5,3.0,2400.0,799000,Keller Williams Realty Nyc Grp,232||40.8181836|-73.812739,Bronx
40.7802813,-73.7818912,18-70 211th Street #2A,11360,Murray Hill,condo,2,1.0,1453.0,202000,Ny Home Ventures,18|2a|40.7802813|-73.7818912,Queens
40.6149561,-74.0745548,190 Chestnut Avenue,10305,Port Richmond,house,3,2.0,1430.0,720000,Coldwell Banker Advantage,190||40.6149561|-74.0745548,Staten Island
40.6422956,-73.972787,392 E 7th Street,11218,Borough Park,house,5,2.0,2184.21,600000,Apollo Point Realty Llc,392||40.6422956|-73.972787,Brooklyn
40.6279352,-74.0260154,7901 4th Avenue Apt D7,11209,Bay Ridge,condo,3,1.0,1200.0,599000,Douglas Elliman,7901||40.6279352|-74.0260154,
40.6192765,-74.09515,162 Arlo Road # A,10301,Fox Hills,condo,2,1.0,860.0,235000,Berkshire Hathaway Homeservices Cangiano Estates,162|a|40.6192765|-74.09515,Staten Island
40.7598591,-73.7290086,58- 42 251st Street,11362,Fresh Meadows,house,3,1.0,960.0,319000,Douglas Elliman,58||40.7598591|-73.7290086,Queens
40.7000145,-73.9010076,18-29 George Street,11385,Jackson Heights,house,12,6.0,2184.21,950000,Keller Williams Rlty Landmark,18||40.7000145|-73.9010076,Queens
40.7860789,-73.7928524,15-03 201st Street,11360,Murray Hill,house,4,2.0,2184.21,1088888,Carollo Real Estate Inc,15||40.7860789|-73.7928524,Queens
40.5675492,-74.140764,24 Gianna Ct,10306,New Dorp,house,4,4.0,3300.0,1250000,Better Homes And Gardens Real Estate Safari Realty,24||40.5675492|-74.140764,Staten Island
40.6799197,-73.8839962,2998 Fulton Street,11208,East New York,house,3,2.37,2184.21,650000,J Shayovitz Real Estate Corp,2998||40.6799197|-73.8839962,Brooklyn
40.5525576,-74.1709014,417 Genesee Avenue,10312,Huguenot,house,3,2.0,960.0,774888,Claire Properties,417||40.5525576|-74.1709014,Staten Island
40.879078,-73.9175196,60 Knolls Crescent #8F,10463,Kingsbridge,condo,1,1.0,650.0,105509,"Robert E. Hill, Inc.",60|8f|40.879078|-73.9175196,Bronx
40.6862289,-73.9364224,544 Madison Street,11221,Bushwick,house,5,2.0,2184.21,995000,Douglas Elliman,544||40.6862289|-73.9364224,Brooklyn
40.8152029,-73.8154969,4322 E Tremont Avenue,10465,Pelham Bay,house,4,2.0,1728.0,769000,Century 21 Kafcos Realty,4322||40.8152029|-73.8154969,Bronx
40.9048823,-73.9051113,5601 Riverdale Avenue #2B,10471,Riverdale,condo,2,1.0,1100.0,395995,Ooakb&F Inc,5601|2b|40.9048823|-73.9051113,Bronx
40.7585686,-73.9669708,231-235 E 55th Street # 45A,10022,Midtown East,condo,1,2.0,900.0,975000,Peter Ashe Real Estate,231|45a|40.7585686|-73.9669708,Manhattan
40.8549429,-73.7908303,616 City Island Avenue,10464,Throggs Neck,house,2,1.0,1744.0,499999,Morris Park Realty Group,616||40.8549429|-73.7908303,Bronx
40.777244,-73.9868738,165 West End Avenue #7N,10023,Upper West Side,condo,2,2.0,2184.21,1649000,Douglas Elliman,165|7n|40.777244|-73.9868738,Manhattan
40.7083799,-73.8290102,83-40 Austin Street #3E,11415,Jamaica,condo,2,1.0,2184.21,365000,Exp Realty,83|3e|40.7083799|-73.8290102,Queens
40.606691,-74.0724094,122 North Drive,10305,Port Richmond,house,3,2.0,1620.0,748999,Corcoran Soho,122||40.606691|-74.0724094,Staten Island
40.6933533,-73.7503369,"118-14 201 Place, Street. Albans",11412,Jamaica,house,3,2.0,2184.21,635000,Keller Williams Legendary,118||40.6933533|-73.7503369,Queens
40.7276196,-73.9848906,87 Street Marks Place #4C,10009,Alphabet City,condo,3,1.0,400.0,149000,Corcoran Soho,87|4c|40.7276196|-73.9848906,Manhattan
40.6481943,-73.8452374,84-11 165th Avenue,11414,Jamaica,house,5,2.0,1760.0,1099000,Capri Jet Realty Corp,84||40.6481943|-73.8452374,Queens
40.525422,-74.166603,750 Barclay Avenue,10312,Huguenot,house,3,2.37,2184.21,3950000,Prereal Prendamano Real Estate,750||40.525422|-74.166603,Staten Island
40.6780476,-73.8056181,116-25 134th Street,11420,South Ozone Park,house,6,5.0,2400.0,1529999,Prestige Homes Ny Inc,116||40.6780476|-73.8056181,Queens
40.6333513,-74.1021333,44 Hunter Place,10301,St. George,house,3,1.0,1404.0,675000,Gateway Arms Realty Corp.,44||40.6333513|-74.1021333,Staten Island
40.660323,-73.8455929,87-07 158th Avenue,11414,Howard Beach,house,6,6.0,2184.21,2650000,"Century 21 Amiable Realty Group Ii, Inc.",87||40.660323|-73.8455929,Queens
40.6784764,-73.8476859,90-07 107th Avenue,11417,Jamaica,house,3,1.0,2184.21,420000,Sowae Corp,90||40.6784764|-73.8476859,Queens
40.6444117,-73.9100389,9115 Bedell Lane,11236,Canarsie,house,3,2.37,2184.21,2999950,Paulema Realty Group Inc,9115||40.6444117|-73.9100389,Brooklyn
40.5132339,-74.1959753,18 Navigator Ct,10309,Mid-Island,house,3,2.0,980.0,559900,Liberty Chateau Realty Inc,18||40.5132339|-74.1959753,Staten Island
40.6776809,-73.8166457,"122-4 115th Avenue, South Ozone Park",11420,Jamaica,house,3,1.0,2184.21,549000,Coldwell Banker American Homes,122||40.6776809|-73.8166457,Queens
40.7644631,-73.8297531,136-17 Carlton Place,11354,Flushing,house,3,2.0,950.0,999000,E House Realty & Mgt. Inc.,136||40.7644631|-73.8297531,Queens
40.842629,-73.8665973,633 Mead Street,10460,Longwood,house,3,2.37,2184.21,289000,Countrywide Real Estate Inc,633||40.842629|-73.8665973,Bronx
40.7827104,-73.8457691,"1815 College Point Boulevard, College Point",11356,Flushing,house,3,2.37,2184.21,790000,C&R Real Estate Group Ny Llc,1815||40.7827104|-73.8457691,Queens
40.8180374,-73.9436858,235 W 138th Street,10030,Harlem,house,7,4.0,3632.0,2295000,Brooklyn Bound Realty Corp,235||40.8180374|-73.9436858,Manhattan
40.5343966,-74.1582874,335 Preston Avenue,10312,Huguenot,house,3,4.0,3000.0,1150000,Nexthome Prestige,335||40.5343966|-74.1582874,Staten Island
40.6712528,-73.9716506,18 Prospect Park W,11215,Park Slope,house,7,2.37,9026.0,13995000,Compass,18||40.6712528|-73.9716506,Brooklyn
40.6685186,-73.9175924,1518 Pitkin Avenue,11212,Brownsville,house,3,2.37,2184.21,6100000,"Landair Property Advisors, Llc",1518||40.6685186|-73.9175924,Brooklyn
40.6753179,-73.9008593,2532 Atlantic Avenue,11207,East New York,house,3,2.37,2184.21,350000,New Prospective Realty Inc,2532||40.6753179|-73.9008593,Brooklyn
40.89582,-73.9110766,9 Alderbrook Road,10471,Riverdale,house,3,2.37,2184.21,450000,Trebach Realty Inc,9||40.89582|-73.9110766,Bronx
40.7051444,-73.8030054,153-10 89th Avenue,11432,Jamaica,house,3,2.37,2184.21,2999999,Lions Guard Brokerage Llc,153||40.7051444|-73.8030054,Queens
40.578639,-73.965449,238 Ocean View Avenue,11235,Brighton Beach,house,3,2.37,2184.21,2500000,Real Estate Trade Co Inc,238||40.578639|-73.965449,Brooklyn
40.5844107,-73.9380366,8 Lake Avenue,11235,Sheepshead Bay,house,3,2.37,2184.21,350000,Real Estate Top Sales Llc,8||40.5844107|-73.9380366,Brooklyn
40.6171535,-74.0890497,40 Cedarcliff Road,10301,St. George,house,3,2.37,2184.21,150000,Truhomes Realty Group,40||40.6171535|-74.0890497,Staten Island
40.6179636,-73.9681702,1348 E 7th Street,11230,Gravesend,house,3,2.37,2184.21,3600000,Es Realty Eva Shammah Llc,1348||40.6179636|-73.9681702,Brooklyn
40.6170275,-74.0893192,48 Cedarcliff Road,10301,St. George,house,3,2.37,2184.21,150000,Truhomes Realty Group,48||40.6170275|-74.0893192,Staten Island
40.7142299,-73.8152,14350 Hoover Avenue Apt 307,11435,Jamaica,condo,3,2.0,1400.0,235000,Nobroker,14350||40.7142299|-73.8152,Queens
40.6511537,-73.8284146,164th Drive,11414,Jamaica,house,3,2.37,2184.21,199000,Sovereign Realty Of Ny Inc,164t||40.6511537|-73.8284146,Queens
40.8492324,-73.8914043,2090 Arthur Avenue,10457,Mount Hope,house,3,2.37,2184.21,2000000,Oxford Property Group,2090||40.8492324|-73.8914043,Bronx
40.7185125,-73.834819,75-43 113th Street,11375,Fresh Meadows,house,3,2.37,2184.21,2200000,"Landair Property Advisors, Llc",75||40.7185125|-73.834819,Queens
40.759972,-73.9173868,31-42 41st Street,11103,Astoria,house,3,2.37,2184.21,650000,Modern Spaces Love Your Place,31||40.759972|-73.9173868,Queens
40.5742632,-74.086609,644 Jefferson Avenue,10306,Midland Beach,house,3,2.37,2184.21,149000,Neman Yoska,644||40.5742632|-74.086609,Staten Island
40.6694978,-73.8897534,408 Van Siclen Avenue,11207,East New York,house,4,2.0,2000.0,215000,Sowae Corp,408||40.6694978|-73.8897534,Brooklyn
40.6789582,-73.9203193,1905 Fulton Street,11233,Bed-Stuy,house,3,2.37,2184.21,799999,5 Boro Realty Corp,1905||40.6789582|-73.9203193,Brooklyn
40.593404,-73.775651,"219 Beach 44th Street, Far Rockaway",11691,Rockaway,house,5,2.0,2184.21,299000,Bkny Troy Avenue Realty Corp,219||40.593404|-73.775651,
40.6743408,-73.9056237,1698 E New York Avenue,11212,Brownsville,house,3,2.37,2184.21,265000,Soverign Homes Realty Inc,1698||40.6743408|-73.9056237,Brooklyn
40.8457524,-73.9059682,1761 Topping Avenue,10457,Fordham,house,3,2.37,2184.21,795000,Jl Capital Real Estate Corp,1761||40.8457524|-73.9059682,Bronx
40.902657,-73.901871,5437 Fieldston Road,10471,Riverdale,house,3,2.37,2184.21,1245000,Jl Capital Real Estate Corp,5437||40.902657|-73.901871,Bronx
40.699454,-73.924234,1385 Dekalb Avenue,11221,Bushwick,house,3,2.37,2184.21,549000,Crifasi Real Estate Inc,1385||40.699454|-73.924234,Brooklyn
40.7833319,-73.9815796,378 West End Avenue #4A,10024,Upper West Side,condo,4,4.0,2888.0,7495000,Douglas Elliman,378|4a|40.7833319|-73.9815796,Manhattan
40.7639241,-73.9190583,30-53 35th Street,11103,Astoria,house,4,4.0,4080.0,2850000,Keller Williams Nyc,30||40.7639241|-73.9190583,Queens
40.8233271,-73.8110122,127 D Edgewater Park,10465,Pelham Bay,house,2,2.0,747.0,215000,Berkshire Hathaway Homeservices New York Properties,127||40.8233271|-73.8110122,Bronx
40.6415965,-73.9105958,621 E 87th Street,11236,Canarsie,house,3,2.37,2184.21,299000,Century 21 Achievers,621||40.6415965|-73.9105958,Brooklyn
40.8409818,-73.8292936,3009 Coddington Avenue,10461,Belmont,house,2,1.0,1104.0,275000,Sowae Corp,3009||40.8409818|-73.8292936,Bronx
40.5586967,-74.1351001,15 Spratt Avenue,10306,New Dorp,house,6,3.0,2100.0,898000,Momentum Real Estate Llc,15||40.5586967|-74.1351001,Staten Island
40.8554764,-73.8287193,1910 Pelham Parkway S #2A,10461,Belmont,condo,2,1.0,900.0,275000,Signature Premier Properties,1910|2a|40.8554764|-73.8287193,Bronx
40.6747343,-73.8239749,114-36 Sutter Avenue,11420,Jamaica,house,4,2.0,1682.0,599000,Drop Key Realty Llc,114||40.6747343|-73.8239749,Queens
40.6109595,-74.060351,20 Cliff Street #5B,10305,Port Richmond,condo,1,1.0,730.0,189000,Gateway Arms Realty Corp.,20|5b|40.6109595|-74.060351,Staten Island
40.6012318,-74.1300175,155 Wellbrook Avenue,10314,Tottenville,house,3,3.0,1575.0,678990,Blooming Realty,155||40.6012318|-74.1300175,Staten Island
40.608799,-73.9128174,2660 Mill Avenue,11234,Mill Basin,house,3,2.0,1824.0,800000,Superior Realty Service,2660||40.608799|-73.9128174,Brooklyn
40.6221107,-74.1499982,4 Jamie Ct,10314,Graniteville,house,3,2.0,1092.0,549000,Taranto Realty,4||40.6221107|-74.1499982,Staten Island
40.5528489,-74.1699382,329 Wainwright Avenue,10312,Huguenot,house,3,2.0,2000.0,849000,Compass Realty Central Inc.,329||40.5528489|-74.1699382,Staten Island
40.6428139,-73.9451438,558 E 34th Street,11203,Flatbush,house,3,2.37,2184.21,675000,Glashen Realty Group Inc,558||40.6428139|-73.9451438,Brooklyn
40.6330671,-74.1659477,263 South Avenue,10303,Stapleton,house,3,2.37,664.0,130000,Sowae Corp,263||40.6330671|-74.1659477,Staten Island
40.7083753,-73.787158,91-18 173rd Street,11432,Jamaica,house,4,2.0,2184.21,759999,Eden7 Realty Inc,91||40.7083753|-73.787158,Queens
40.546573,-74.213449,615 Correll Avenue,10309,Mid-Island,house,2,1.0,978.0,489000,Martino Realty Group,615||40.546573|-74.213449,Staten Island
40.5956263,-73.933927,2339 Brigham Street,11229,Gerritsen Beach,house,5,2.0,1750.0,799900,Re Max Real Estate Professionals,2339||40.5956263|-73.933927,
40.6633466,-73.8542803,"155- 23 79th Street #2, Howard Beach",11414,Howard Beach,condo,3,1.0,2184.21,295000,"Century 21 Amiable Realty Group Ii, Inc.",155|2|40.6633466|-73.8542803,Queens
40.8762047,-73.8603621,3531 Bronxwood Avenue,10469,Riverdale,house,2,1.0,1010.0,159000,Berkshire Hathaway Homeservices New York Properties,3531||40.8762047|-73.8603621,Bronx
40.784332,-73.8045713,157-23 16th Road,11357,Whitestone,house,3,2.0,1144.0,999500,Douglas Elliman,157||40.784332|-73.8045713,Queens
40.6426635,-74.1108512,68 Davis Avenue,10310,South Beach,house,3,2.0,2310.0,589000,"Robert Defalco Realty, Inc.",68||40.6426635|-74.1108512,Staten Island
40.6316141,-74.0858954,55 Austin Place,10304,Mariner's Harbor,house,2,1.0,850.0,329000,Exp Realty,55||40.6316141|-74.0858954,Staten Island
40.6402886,-73.9463493,431 E 32nd Street,11226,Flatbush,house,3,2.0,1881.0,799000,"Compass Greater Ny, Llc",431||40.6402886|-73.9463493,Brooklyn
40.6198659,-74.0087151,1268 76th Street,11228,Bensonhurst,house,4,2.0,1580.0,1188000,"Ben Bay Realty, Co.",1268||40.6198659|-74.0087151,Brooklyn
40.846624,-73.8520911,1625 Lurting Avenue,10461,Belmont,house,3,2.0,1400.0,729000,Pantiga Group Inc.,1625||40.846624|-73.8520911,Bronx
40.6142391,-74.0884134,30 Cunard Avenue,10304,Mariner's Harbor,house,3,2.0,1495.0,614900,Real Broker Ny Llc,30||40.6142391|-74.0884134,Staten Island
40.8972473,-73.868898,242 E 235th Street,10470,Co-op City,house,4,2.0,1500.0,599000,Keller Williams Realty Nyc Grp,242||40.8972473|-73.868898,Bronx
40.7608129,-73.8669195,31-15 102nd Street,11368,Sunnyside,house,6,2.0,2184.21,950000,Re/Max Team,31||40.7608129|-73.8669195,Queens
40.5704687,-73.8558742,"137 B 140 Street, Rockaway Park",11694,Belle Harbor,house,5,2.37,2184.21,11000000,Corcoran Westside Columbus,137||40.5704687|-73.8558742,
40.575138,-74.090531,952 Olympia Boulevard,10306,Midland Beach,house,3,2.37,2184.21,348000,Ashford Homes,952||40.575138|-74.090531,Staten Island
40.6903851,-73.9825343,9 Dekalb Avenue #54,11201,Brooklyn Heights,condo,3,1.0,540.0,965000,Douglas Elliman,9|54|40.6903851|-73.9825343,Brooklyn
40.5505648,-74.1599018,89 Escanaba Avenue,10308,St. George,house,4,4.0,2280.0,1095000,American Homes Group,89||40.5505648|-74.1599018,Staten Island
40.7241501,-74.0080814,219 Hudson Street #4A,10013,Tribeca,condo,2,2.0,1242.0,2295000,Serhant,219|4a|40.7241501|-74.0080814,Manhattan
40.7323524,-73.9993358,112 Waverly Place,10011,Greenwich Village,house,5,7.0,2184.21,13500000,Corcoran Chelsea/Flatiron,112||40.7323524|-73.9993358,Manhattan
40.8432844,-73.7846028,150 City Island Avenue #3E,10464,Throggs Neck,condo,3,2.37,800.0,49500,Morris Park Realty Group,150|3e|40.8432844|-73.7846028,Bronx
40.641648,-73.9064568,26 Durland Place,11236,Canarsie,house,3,3.0,2256.0,460000,Unlimited Homes Realty Inc,26||40.641648|-73.9064568,Brooklyn
40.6739463,-73.885344,344 Ashford Street,11207,East New York,house,12,6.0,2184.21,825000,Stuyvesant Heights Realty Corp,344||40.6739463|-73.885344,Brooklyn
40.7120962,-73.8518076,70-17 Nansen Street,11375,Fresh Meadows,house,3,2.0,1590.0,1230250,Compass,70||40.7120962|-73.8518076,Queens
40.6099147,-73.9287144,2047 E 38th Street,11234,Flatlands,house,3,2.0,1344.0,799999,Homelink Homes Llc,2047||40.6099147|-73.9287144,Brooklyn
40.7121373,-73.8277084,"123-35 82nd Road #5H, Kew Gardens",11415,Kew Gardens,condo,2,1.0,2184.21,259500,Keller Williams Realty Liberty,123|5h|40.7121373|-73.8277084,Queens
40.6411388,-73.9478417,3015 Avenue D,11226,Flatbush,house,15,6.0,4920.0,1300000,Ihome Realty Group Llc,3015||40.6411388|-73.9478417,Brooklyn
40.7874921,-73.7858086,1322 208th Place #1605,11360,Murray Hill,condo,2,2.0,1300.0,749000,Integrity Core Realty,1322|1605|40.7874921|-73.7858086,Queens
40.5849224,-74.0968781,19 Vera Street,10305,Dongan Hills,house,2,1.0,660.0,265000,American Homes Group,19||40.5849224|-74.0968781,Staten Island
40.5809134,-73.8302012,"190 Beach 109th Street, Rockaway Park",11694,Rockaway Park,house,2,1.0,900.0,575000,Re Max Elite,190||40.5809134|-73.8302012,
40.8528127,-73.8312235,2033 Hobart Avenue,10461,Belmont,house,4,2.0,2180.0,849000,Homesmart Homes And Estates,2033||40.8528127|-73.8312235,Bronx
40.7565472,-73.7339718,244-89 61st Avenue,11362,Douglaston Plaza Shopping Center,house,2,2.0,1214.0,875000,Nobroker,244||40.7565472|-73.7339718,Queens
40.613911,-74.133028,68 Watchogue Road,10314,Tottenville,house,3,2.0,1360.0,599999,"Neuhaus Realty, Inc.",68||40.613911|-74.133028,Staten Island
40.6542535,-73.8350556,"162-14 97th Street, Howard Beach",11414,Jamaica,house,5,3.0,2184.21,1150000,Real Broker Ny Llc,162||40.6542535|-73.8350556,Queens
40.5929709,-74.0937822,139 Atlantic Avenue,10304,Mariner's Harbor,house,4,2.37,3840.0,1188000,Re Max Edge,139||40.5929709|-74.0937822,Staten Island
40.6422293,-74.0830445,241 Westervelt Avenue,10301,Saint George,house,3,2.37,2640.0,579900,"Tom Marco Real Estate, Inc.",241||40.6422293|-74.0830445,Staten Island
40.78403,-73.80579,16-38 157th Street,11357,Whitestone,house,4,3.0,2440.0,1295000,Douglas Elliman,16||40.78403|-73.80579,Queens
40.6212165,-73.9324344,4413 Avenue M,11234,Flatlands,house,3,1.0,1376.0,250000,Sowae Corp,4413||40.6212165|-73.9324344,Brooklyn
40.9007702,-73.9110778,5239 Independence Avenue,10471,Eastchester,house,3,2.37,2184.21,1395000,Trebach Realty Inc,5239||40.9007702|-73.9110778,Bronx
40.7179519,-73.8427778,7 Middlemay Cir,11375,Fresh Meadows,house,3,4.0,1751.0,1648000,Daniel Gale Sotheby'S International Realty,7||40.7179519|-73.8427778,Queens
40.7169141,-73.7831551,85-33 Radnor Street,11432,Jamaica Estates,house,4,5.0,2184.21,1675000,Voro Llc,85||40.7169141|-73.7831551,Queens
40.7188985,-73.8587988,66-23 Alderton Street,11374,Rego Park,house,3,2.0,1748.0,950000,Exit Realty Premier,66||40.7188985|-73.8587988,Queens
40.7278952,-73.9998294,180 Thompson Street,10012,Soho,house,1,1.0,2184.21,449500,Compass,180||40.7278952|-73.9998294,Manhattan
40.7343409,-73.859014,61-35 98th Street #15A,11374,Rego Park,condo,3,1.0,500.0,184888,All American Realty Management,61|15a|40.7343409|-73.859014,Queens
40.8374911,-73.9456039,664 W 161st Street #1F,10032,Washington Heights,condo,3,1.0,500.0,399000,Spire Group Inc.,664|1f|40.8374911|-73.9456039,Manhattan
40.8915963,-73.8989828,4410 Cayuga Avenue Bsmt B3,10471,Eastchester,house,1,1.0,1078.0,209000,Llk Homes Realty Inc.,4410||40.8915963|-73.8989828,Bronx
40.8409736,-73.8456248,1506 Overing Street Str3,10461,Westchester Square,house,3,2.0,1100.0,280000,Compass,1506||40.8409736|-73.8456248,Bronx
40.6765364,-73.8351774,"132-11 Centerville Street, Ozone Park",11417,Jamaica,house,3,2.0,2184.21,625000,Exp Realty,132||40.6765364|-73.8351774,Queens
40.7772579,-73.9476695,419 E 87th Street #3A,10128,Upper East Side,condo,3,1.0,2184.21,275000,Sotheby'S International Realty,419|3a|40.7772579|-73.9476695,Manhattan
40.5075446,-74.2461088,315 Main Street,10307,Tottenville,house,4,3.0,2049.0,924800,"F.G. Volpe Realty ""Servicing Staten Island""",315||40.5075446|-74.2461088,Staten Island
40.7645123,-73.7595302,222-44 41st Road,11361,Bayside,house,6,4.0,2112.0,1300000,Nexthome All Island,222||40.7645123|-73.7595302,Queens
40.5501403,-74.1810379,65 Rensselaer Avenue,10312,Huguenot,house,5,2.0,2288.0,995000,"Neuhaus Realty, Inc.",65||40.5501403|-74.1810379,Staten Island
40.7814599,-73.9806864,2150 Broadway,10023,Upper West Side,house,5,4.0,4105.0,16500000,Douglas Elliman,2150||40.7814599|-73.9806864,Manhattan
40.5763909,-74.1631382,370 Windham Loop,10314,Tottenville,house,3,2.37,1793.0,695000,Homefinders Of Si Inc.,370||40.5763909|-74.1631382,Staten Island
40.6898026,-73.836542,"95-15 108th Street, South Richmond Hill",11419,Jamaica,house,5,3.0,1738.0,998000,Trademarko Realty Inc,95||40.6898026|-73.836542,Queens
40.6275175,-74.1233766,1009 Forest Avenue,10310,South Beach,house,7,3.0,1980.0,899000,"Tom Crimmins Realty, Ltd.",1009||40.6275175|-74.1233766,Staten Island
40.669692,-73.8003434,137-06 132nd Avenue,11436,Jamaica,house,6,5.0,2184.21,849000,Akcess24Homes Inc,137||40.669692|-73.8003434,Queens
40.576751,-73.8398387,"133 Beach 120th Street #2E, Rockaway Park",11694,Rockaway Park,condo,3,1.0,2184.21,235000,Compass,133|2e|40.576751|-73.8398387,
40.5853532,-73.8227113,"320 Beach 101st Street, Rockaway Park",11694,Rockaway Beach,house,2,1.0,2184.21,399999,Coldwell Banker American Homes,320||40.5853532|-73.8227113,
40.6781418,-73.9250576,860 Herkimer Street,11233,Bed-Stuy,house,4,2.0,1701.0,520000,Sowae Corp,860||40.6781418|-73.9250576,Brooklyn
40.6479766,-73.8936697,901 E 106th Street #1A,11236,Canarsie,condo,3,2.0,2184.21,485000,Realty Executives Powerhouse,901|1a|40.6479766|-73.8936697,Brooklyn
40.622324,-73.9695073,1075 Ocean Parkway #1C,11230,Midwood,condo,3,1.0,1100.0,215000,Madison Estates Sotheby'S International Realty,1075|1c|40.622324|-73.9695073,Brooklyn
40.5294592,-74.1903024,1010 Huguenot Avenue,10312,Huguenot,house,6,5.0,2640.0,1288000,Coldwell Banker Advantage,1010||40.5294592|-74.1903024,Staten Island
40.7562792,-73.8758052,33-05 92nd Street #1C,11372,Jackson Heights,condo,2,2.0,900.0,270000,Gang Jason A,33|1c|40.7562792|-73.8758052,Queens
40.8876529,-73.909649,3635 Johnson Avenue #3G,10463,Kingsbridge,condo,2,2.0,1200.0,375000,Douglas Elliman,3635|3g|40.8876529|-73.909649,Bronx
40.6733809,-73.9732475,78 8th Avenue #2K,11215,Park Slope,condo,1,1.0,2184.21,565000,Corcoran Soho,78|2k|40.6733809|-73.9732475,Brooklyn
40.6895034,-73.8684501,65 Grant Avenue,11208,East New York,house,4,3.0,2184.21,849000,B Square Realty,65||40.6895034|-73.8684501,Brooklyn
40.7092156,-73.7912209,89-00 170th Street #7E,11432,Jamaica,condo,2,1.0,2184.21,199000,Exit Alliance Realty,89|7e|40.7092156|-73.7912209,Queens
40.8985084,-73.902753,5041 Goodridge Avenue,10471,Riverdale,house,8,6.0,9000.0,5500000,Corcoran Williamsburg Bedford,5041||40.8985084|-73.902753,Bronx
40.7646585,-73.780903,36-34 Clearview Expy,11361,Bayside,house,4,2.37,2184.21,899000,B Square Realty,36||40.7646585|-73.780903,Queens
40.6095856,-73.9253159,2138 Coleman Street,11234,Flatlands,house,3,2.0,2350.0,699000,Talk Of The Town Realty C,2138||40.6095856|-73.9253159,Brooklyn
40.7474926,-74.0072666,551 W 21st Street #15A,10011,Chelsea,condo,7,8.0,8139.0,27750000,The Agency,551|15a|40.7474926|-74.0072666,Manhattan
40.7386816,-73.7202723,248-08 82nd Avenue,11426,Jamaica,house,3,1.0,1148.0,739000,Keller Williams Realty Elite,248||40.7386816|-73.7202723,Queens
40.8817944,-73.8617772,747 E 217th Street,10467,Baychester,house,3,2.0,1700.0,425000,Keller Williams Realty Group,747||40.8817944|-73.8617772,Bronx
40.6479387,-74.0852701,350 Richmond Terrace #3C,10301,Howland Hook,condo,2,1.0,900.0,300000,Re Max Real Estate Professionals,350|3c|40.6479387|-74.0852701,Staten Island
40.8147819,-73.8265252,267 Robinson Avenue,10465,Pelham Bay,house,3,3.0,1780.0,569000,Re/Max Elite,267||40.8147819|-73.8265252,Bronx
40.7084501,-73.7316272,223-30 107th Avenue,11429,Jamaica,house,5,3.0,1273.0,789000,Baring Homes Corp,223||40.7084501|-73.7316272,Queens
40.7075029,-74.011653,1 Wall Street #4101,10005,Financial District,condo,3,3.0,2753.0,10500000,Compass,1|4101|40.7075029|-74.011653,Manhattan
40.711175,-73.957086,274 S 2nd Street Apartment 30,11211,Williamsburg,condo,2,1.0,825.0,350000,Corcoran Long Island City,274||40.711175|-73.957086,
40.7185648,-73.9422548,219 Frost Street,11211,Williamsburg,house,8,5.0,6312.0,5895000,Corcoran Brooklyn Heights,219||40.7185648|-73.9422548,
40.6468782,-74.0136737,346 50th Street,11220,Sunset Park,house,7,4.0,2184.21,1250000,Coldwell Banker Reliable Real Estate,346||40.6468782|-74.0136737,
40.6087059,-73.9290715,3623 Avenue T,11234,Flatlands,house,4,2.0,2264.0,1499999,Douglas Elliman,3623||40.6087059|-73.9290715,Brooklyn
40.624169,-74.010925,7302 11th Avenue,11228,Bensonhurst,house,6,2.0,2184.21,1488000,Brownstone Real Estate Llc,7302||40.624169|-74.010925,Brooklyn
40.5607533,-73.9207539,"12 Point Breeze Avenue, Breezy Point",11697,Breezy Point,house,3,2.37,2184.21,285000,Douglas Elliman,12||40.5607533|-73.9207539,
40.6793322,-73.8130504,11448 127th Street,11420,South Ozone Park,house,3,3.0,2184.21,699000,Sell Your Home Ny Inc,11448||40.6793322|-73.8130504,Queens
40.6094348,-73.9777343,1559 W 4th Street,11204,Gravesend,house,3,2.0,1404.0,924900,Liberty Chateau Realty Inc,1559||40.6094348|-73.9777343,Brooklyn
40.8056419,-73.9229736,456 E 134th Street,10454,Claremont Village,house,4,2.0,2318.0,560000,Mach Realty Llc,456||40.8056419|-73.9229736,Bronx
40.5745179,-74.0068304,4015 Atlantic Avenue,11224,Coney Island,house,12,8.0,5100.0,1998000,Century 21 Realty First,4015||40.5745179|-74.0068304,Brooklyn
40.6674344,-73.8479327,"151-40 88th Street #5J, Howard Beach",11414,Jamaica,condo,3,2.0,2184.21,309000,Keller Williams Realty Landmark Ii,151|5j|40.6674344|-73.8479327,Queens
40.8616602,-73.8421016,2423 Woodhull Avenue,10469,Riverdale,house,4,2.37,2160.0,925000,Nest Seekers Westchester Llc,2423||40.8616602|-73.8421016,Bronx
40.7365353,-73.7913358,65-07 181st Street,11365,Bayside,house,4,2.0,2184.21,999000,Landmark International R E Llc,65||40.7365353|-73.7913358,Queens
40.7873388,-73.7794685,214- 10 15th Avenue #4B,11360,Bay Terrace (Queens),condo,2,2.0,833.0,699000,B Square Realty,214|4b|40.7873388|-73.7794685,Queens
40.7267837,-73.8587799,65-38 Booth Street #6E,11374,Rego Park,condo,2,1.0,2184.21,278500,Apple Realty Group Corp,65|6e|40.7267837|-73.8587799,Queens
40.7595774,-73.964779,303 E 57th Street #39A,10022,Midtown East,condo,3,2.0,2184.21,738000,Compass,303|39a|40.7595774|-73.964779,Manhattan
40.6110299,-73.8195062,"12 W 5th Road, Broad Channel",11693,Rockaway,house,4,4.0,2700.0,900000,Compass,12||40.6110299|-73.8195062,
40.5756358,-73.8423199,"123-10 Ocean Prom #7H, Rockaway Park",11694,Rockaway Park,condo,1,1.0,1470.0,369000,Re/Max Elite,123|7h|40.5756358|-73.8423199,
40.8165837,-73.8006996,4384 Locust Point Drive,10465,Pelham Bay,house,3,2.0,1620.0,609000,Premium Choice Realty Corp,4384||40.8165837|-73.8006996,Bronx
40.7928823,-73.8449212,"327 Endeavor Place, College Point",11356,College Point,house,3,2.0,1278.0,758000,Keller Williams Rlty Landmark,327||40.7928823|-73.8449212,Queens
40.55065,-74.193355,166 Rolling Hill Green,10312,Huguenot,house,3,2.0,1890.0,728000,Gillani Homes Inc.,166||40.55065|-74.193355,Staten Island
40.6744942,-73.8883757,595 Glenmore Avenue,11207,East New York,house,3,3.0,1200.0,314900,Liberty Chateau Realty Inc,595||40.6744942|-73.8883757,Brooklyn
40.7202893,-73.7786927,85-16 Chevy Chase Street,11432,Jamaica,house,6,2.37,4443.0,2848000,Julia Shildkret Real Estate,85||40.7202893|-73.7786927,Queens
40.7239521,-73.8747783,62-15 82nd Place,11379,Flushing,house,3,2.0,2046.0,1298000,Tscherne Realty Inc,62||40.7239521|-73.8747783,Queens
40.7564761,-73.7212008,27110 Grand Central Parkway,11005,Glen Oaks,house,4,4.0,2500.0,1095000,Magic Of Great Neck Realty Inc,27110||40.7564761|-73.7212008,
40.6085756,-74.1610387,6 Greentree Lane #6,10314,Bull's Head,condo,3,2.0,1286.0,434900,Liberty Chateau Realty Inc,6|6|40.6085756|-74.1610387,Staten Island
40.8938465,-73.9091368,4601 Henry Hudson Parkway W A8,10471,Eastchester,house,2,2.0,1350.0,375000,Douglas Elliman,4601||40.8938465|-73.9091368,Bronx
40.8485623,-73.8574586,1826 Radcliff Avenue,10462,Pelham Parkway,house,14,8.0,6000.0,1375000,Link Ny Realty,1826||40.8485623|-73.8574586,Bronx
40.7489947,-73.9783819,128 E 38th Street,10016,Murray Hill,house,3,4.0,2400.0,4680000,Onekey Mls Llc,128||40.7489947|-73.9783819,Manhattan
40.724514,-73.8458441,69-10 108th Street #6C,11375,Fresh Meadows,condo,2,2.0,1200.0,549000,O Kane Realty,69|6c|40.724514|-73.8458441,Queens
40.6368544,-74.1124571,225 Bement Avenue,10310,South Beach,house,3,1.0,1400.0,549000,Northshore Properties Realty,225||40.6368544|-74.1124571,Staten Island
40.7157274,-73.8563447,67-44 Kessel Street,11375,Fresh Meadows,house,3,2.0,1520.0,950000,Keller Williams Realty Staten Island,67||40.7157274|-73.8563447,Queens
40.7162732,-73.9849864,157 Broome Street #3E,10002,Lower East Side,condo,3,1.0,2184.21,388000,Loho Realty Inc,157|3e|40.7162732|-73.9849864,Manhattan
40.7375348,-73.9872447,111 E 19th Street,10003,East Village,house,6,6.0,4917.0,5600000,"Sotheby'S International Realty, Inc.",111||40.7375348|-73.9872447,Manhattan
40.7189686,-73.8626041,85-29 66th Avenue,11374,Rego Park,house,8,6.0,3472.0,1600000,Strictly Realty,85||40.7189686|-73.8626041,Queens
40.7732125,-73.9564279,239 E 78th Street,10075,Upper East Side,house,5,2.37,3912.0,6995000,Sotheby'S International Realty,239||40.7732125|-73.9564279,Manhattan
40.721725,-73.8839773,61-29 75th Street,11379,Flushing,house,6,2.0,2184.21,1399000,Douglas Elliman,61||40.721725|-73.8839773,Queens
40.6798316,-73.82277,117-02 111th Avenue,11420,Jamaica,house,3,2.37,1350.0,399000,Sowae Corp,117||40.6798316|-73.82277,Queens
40.6985714,-73.9881911,175 Adams Street #10E,11201,Downtown Brooklyn,condo,1,1.0,630.0,529900,Corcoran Brooklyn Heights,175|10e|40.6985714|-73.9881911,Brooklyn
40.7227469,-73.8941061,59-14 69th Street,11378,Maspeth,house,5,2.0,2184.21,999000,Prime Realty,59||40.7227469|-73.8941061,Queens
40.7373082,-73.878333,81-15 Queens Boulevard #3C,11373,Elmhurst,condo,2,2.0,2184.21,575000,Winzone Realty Inc,81|3c|40.7373082|-73.878333,Queens
40.7855084,-73.7762312,216-10 17th Avenue Th53,11360,Bay Terrace (Queens),house,3,4.0,2184.21,659900,Keller Williams Points North,216||40.7855084|-73.7762312,Queens
40.6621056,-73.9857576,484A 7th Avenue,11215,Park Slope,house,6,3.0,2385.0,2200000,Bhhs New York Properties,484a||40.6621056|-73.9857576,Brooklyn
40.7282381,-73.7158123,249-07 88th Road,11426,Jamaica,house,5,2.0,1550.0,898888,Project Queens Llc,249||40.7282381|-73.7158123,Queens
40.5395581,-74.2229079,148 Clay Pit Road,10309,Woodrow,house,5,4.0,3427.0,1250000,"Nest Seekers International, Midtown",148||40.5395581|-74.2229079,Staten Island
40.6085532,-73.998257,1861 82nd Street,11214,Bensonhurst,house,3,2.0,2240.0,1188000,"Compass Greater New York, Llc",1861||40.6085532|-73.998257,Brooklyn
40.6005525,-74.1314512,428 Bradley Avenue,10314,Tottenville,house,5,3.0,2080.0,869999,Coldwell Banker Advantage,428||40.6005525|-74.1314512,Staten Island
40.5988908,-73.9334675,2229 Knapp Street #2A,11229,Gerritsen Beach,condo,3,1.0,1050.0,219000,Top Nest Inc,2229|2a|40.5988908|-73.9334675,
40.664748,-73.884184,653 Jerome Street,11207,East New York,house,3,2.37,1840.0,210000,Sowae Corp,653||40.664748|-73.884184,Brooklyn
40.6672674,-73.8686224,737 Pine Street,11208,East New York,house,6,2.0,2184.21,799000,Cross Country Realty,737||40.6672674|-73.8686224,Brooklyn
40.8363242,-73.8654755,1425 Thieriot Avenue #6L,10460,Longwood,condo,3,2.0,1100.0,298000,R Jaundoo Realty Llc,1425|6l|40.8363242|-73.8654755,Bronx
40.5646314,-74.1243252,25 Tarring Street,10306,New Dorp,house,4,4.0,3500.0,1248888,Re/Max Edge,25||40.5646314|-74.1243252,Staten Island
40.8061576,-73.9550949,313 W 118th Street #3D,10026,Harlem,condo,2,2.0,955.0,1075000,Corcoran East Side,313|3d|40.8061576|-73.9550949,Manhattan
40.6750114,-73.9554645,633 Prospect Place #1,11216,Bed-Stuy,condo,2,2.0,1572.0,1695000,Corcoran Park Slope,633|1|40.6750114|-73.9554645,Brooklyn
40.702988,-73.9907803,30 Main Street,11201,Brooklyn Heights,house,3,2.0,1887.0,3795000,Brown Harris Stevens,30||40.702988|-73.9907803,Brooklyn
40.7135475,-73.895855,6248 Mt Olivet Crescent Apt 1A,11379,Flushing,condo,2,2.0,2184.21,550000,Sold By Bart R E Partners Inc,6248||40.7135475|-73.895855,Queens
40.7313539,-74.0050572,46 Commerce Street # 5,10014,West Village,condo,3,1.0,2184.21,775000,Sotheby'S International Realty,46|5|40.7313539|-74.0050572,Manhattan
40.6189484,-74.1071576,1100 Clove Road,10301,St. George,house,2,2.0,800.0,249900,Wonica Realtors & Appraisers,1100||40.6189484|-74.1071576,Staten Island
40.5663057,-74.1529549,318 Arthur Kill Road,10308,Great Kills,house,4,1.0,1152.0,650000,Keller Williams Realty Empire,318||40.5663057|-74.1529549,Staten Island
40.6249201,-74.0404698,8701 Shore Road Apt 435,11209,Fort Hamilton,condo,1,1.0,2184.21,410000,Corcoran Brooklyn Heights,8701||40.6249201|-74.0404698,
40.5906586,-73.9818321,2331 W 12th Street,11223,Gravesend,house,9,5.0,4320.0,1650000,Momentum Real Estate Llc,2331||40.5906586|-73.9818321,Brooklyn
40.7448219,-73.9944632,159 W 24th Street #5B,10011,Chelsea,condo,2,2.0,1100.0,1600000,Brown Harris Stevens,159|5b|40.7448219|-73.9944632,Manhattan
40.7280894,-73.8494828,67-12 Yellowstone Boulevard #1B,11375,Fresh Meadows,condo,2,1.0,2184.21,325000,Douglas Elliman,67|1b|40.7280894|-73.8494828,Queens
40.5735927,-74.1200228,177 3rd Street #1,10306,New Dorp,condo,2,1.0,900.0,275000,Precious Properties Corp.,177|1|40.5735927|-74.1200228,Staten Island
40.8844018,-73.9028342,3610 Corlear Avenue,10463,Kingsbridge,house,3,2.0,1620.0,700000,Keller Williams Realty Nyc Grp,3610||40.8844018|-73.9028342,Bronx
40.7555333,-73.9016851,32-16 61st Street,11377,Jackson Heights,house,3,2.0,2184.21,930000,Chase Global Realty Corp,32||40.7555333|-73.9016851,Queens
40.845063,-73.783581,190 Schofield Street #3I,10464,City Island,condo,1,2.0,704.0,379000,Today Realty Corp.,190|3i|40.845063|-73.783581,Bronx
40.6149237,-73.9789281,2234 62nd Street,11204,Midwood,house,3,2.37,1376.0,1150000,"Ben Bay Realty, Co.",2234||40.6149237|-73.9789281,Brooklyn
40.7322223,-73.8588845,98-05 63rd Road,11374,Rego Park,house,3,2.0,1100.0,568888,Mjr Real Estate Llc,98||40.7322223|-73.8588845,Queens
40.59194,-74.1087406,244 4 Corners Road,10304,Mariner's Harbor,house,4,3.0,2052.0,1200000,Connie Profaci Realty,244||40.59194|-74.1087406,Staten Island
40.5499354,-74.1709931,712 Katan Avenue,10312,Huguenot,house,3,3.0,2550.0,899900,Wonica Realtors & Appraisers,712||40.5499354|-74.1709931,Staten Island
40.7859137,-73.7868778,14-12 Bonnie Lane #2,11360,Murray Hill,condo,3,2.0,1200.0,799999,Compass,14|2|40.7859137|-73.7868778,Queens
40.6601546,-73.9163716,348 Legion Street,11212,Brownsville,house,3,4.0,2184.21,300000,Sowae Corp,348||40.6601546|-73.9163716,Brooklyn
40.5758238,-74.1227343,3037 Richmond Road,10306,New Dorp,house,4,3.0,3098.0,750000,Island Advantage Realty Llc,3037||40.5758238|-74.1227343,Staten Island
40.5598117,-74.1585168,416 Colon Avenue,10308,St. George,house,4,2.0,1196.0,669999,Prodigy Real Estate Inc.,416||40.5598117|-74.1585168,Staten Island
40.6337278,-74.0936101,15 Portland Place,10301,St. George,house,2,1.0,1200.0,575000,Re Max Elite,15||40.6337278|-74.0936101,Staten Island
40.5987787,-73.9350489,2212 Brigham Street #3C,11229,Gerritsen Beach,condo,3,1.0,2184.21,299000,Nobroker,2212|3c|40.5987787|-73.9350489,
40.6409456,-74.0859933,89 Taft Avenue,10301,St. George,house,3,4.0,1440.0,548800,American Homes Group,89||40.6409456|-74.0859933,Staten Island
40.7699341,-73.9675072,14 E 69th Street,10021,Upper East Side,house,7,9.0,12300.0,28500000,Peter Ashe Real Estate,14||40.7699341|-73.9675072,Manhattan
40.7041499,-73.83371,"8425 118th Street Apt 1d, Kew Gardens",11418,Jamaica,condo,2,1.0,2184.21,259000,Realty Executives Today,8425||40.7041499|-73.83371,Queens
40.7226099,-73.8495,7025 Yellowstone Boulevard Apt 14D,11375,Forest Hills,condo,2,1.0,2184.21,425000,Sbny Re,7025||40.7226099|-73.8495,Queens
40.6795412,-73.8904428,68 Schenck Avenue,11207,East New York,house,4,2.0,2200.0,950000,Nexthome Platinum Properties,68||40.6795412|-73.8904428,Brooklyn
40.833945,-73.9432359,526 W 158th Street #64,10032,Washington Heights,condo,2,1.0,600.0,185000,Adcny Realty Corp,526|64|40.833945|-73.9432359,Manhattan
40.7773521,-73.7464296,373 Manor Road,11363,Douglaston,house,4,3.0,2364.0,1688888,Century Homes Realty Group Llc,373||40.7773521|-73.7464296,Queens
40.8681745,-73.8897652,262 E 197th Street,10458,Morris Heights,house,6,3.0,2184.21,689000,Elite Synergy Realty Inc,262||40.8681745|-73.8897652,Bronx
40.7312799,-73.8192399,15058 Jewel Avenue # 75B,11367,Kew Gardens Hills,condo,2,1.0,2184.21,419000,Charles Rutenberg Realty Inc,15058|75b|40.7312799|-73.8192399,Queens
40.5783044,-73.9471644,4193 Ocean Avenue,11235,Manhattan Beach,house,4,2.0,2184.21,1199000,Bright Horizons Realty Inc,4193||40.5783044|-73.9471644,Brooklyn
40.5790771,-73.9425262,153 Jaffray Street,11235,Manhattan Beach,house,4,2.37,2184.21,2150000,Bright Horizons Realty Inc,153||40.5790771|-73.9425262,Brooklyn
40.5955552,-74.1677939,82 Mulberry Avenue,10314,Tottenville,house,3,4.0,2208.0,899000,Keller Williams Realty Greater Nassau,82||40.5955552|-74.1677939,Staten Island
40.7121557,-73.7452804,102-26 213th Street,11429,Jamaica,house,3,2.0,2184.21,675000,Qvtopservice,102||40.7121557|-73.7452804,Queens
40.748098,-73.9824791,20 E 35th Street #3D,10016,Murray Hill,condo,2,1.0,2184.21,875000,Bhhs New York Properties,20|3d|40.748098|-73.9824791,Manhattan
40.7604194,-73.9968086,529 W 42nd Street #6L,10036,Midtown West / Hell's Kitchen,condo,2,1.0,1130.0,899000,Corcoran Westside Columbus,529|6l|40.7604194|-73.9968086,Manhattan
40.6999899,-73.8539,"8377 Woodhaven Boulevard Apt 2d, Woodhaven",11421,Woodhaven,condo,2,1.0,2184.21,219000,Ebmg Llc,8377||40.6999899|-73.8539,Queens
40.8683656,-73.8832093,2962 Decatur Avenue #1C,10458,Morris Heights,condo,2,1.0,600.0,120000,Re/Max Opulent,2962|1c|40.8683656|-73.8832093,Bronx
40.8640024,-73.9231918,581 Academy Street #1G,10034,Inwood,condo,2,1.0,2184.21,470000,Corcoran,581|1g|40.8640024|-73.9231918,Manhattan
40.8995193,-73.8623678,4315 Webster Avenue #3L,10470,Co-op City,condo,2,1.0,950.0,229000,Era Insite Realty Services,4315|3l|40.8995193|-73.8623678,Bronx
40.6115483,-74.0008656,8001 New Utrecht Avenue,11214,Bath Beach,house,3,32.0,11760.0,3000000,Momentum Real Estate Llc,8001||40.6115483|-74.0008656,Brooklyn
40.7090268,-73.8335998,"116 Audley Street, Kew Gardens",11415,Jamaica,house,5,4.0,2184.21,1199000,Douglas Elliman,116||40.7090268|-73.8335998,Queens
40.5784148,-74.0064631,3812 Cypress Avenue,11224,Coney Island,house,9,8.0,2961.0,1498000,Remax Edge,3812||40.5784148|-74.0064631,Brooklyn
40.7557937,-73.9642805,411 E 53rd Street #4J,10022,Midtown East,condo,4,3.0,2000.0,2000000,Corcoran East Side,411|4j|40.7557937|-73.9642805,Manhattan
40.7266327,-74.0088321,100 Vandam Street #20A,10013,SoHo,condo,6,6.0,6569.0,50000000,"Nest Seekers International, Midtown",100|20a|40.7266327|-74.0088321,Manhattan
40.6628113,-73.8453503,"156-23 88th Street, Howard Beach",11414,Jamaica,house,3,2.0,2184.21,550000,Jerry Fink Real Estate Inc,156||40.6628113|-73.8453503,Queens
40.6265387,-74.1263932,161 Greenleaf Avenue,10310,South Beach,house,3,1.0,1176.0,499000,Ditommaso Real Estate,161||40.6265387|-74.1263932,Staten Island
40.8909806,-73.8528183,860 E 232nd Street,10466,Van Nest,house,6,3.0,2202.0,800000,"Annkey Realty, Inc.",860||40.8909806|-73.8528183,Bronx
40.6649999,-73.84857,"15507 86th Street # 102, Howard Beach",11414,Jamaica,condo,2,1.0,798.0,239000,"Century 21 Amiable Realty Group Ii, Inc.",15507|102|40.6649999|-73.84857,Queens
40.7322213,-73.9986277,26 Washington Square W,10011,Chelsea,house,10,13.0,8750.0,29950000,Sotheby'S International Realty,26||40.7322213|-73.9986277,Manhattan
40.5394128,-74.2228391,107 Salamander Ct,10309,Mid-Island,house,3,2.0,1440.0,674999,Re Max Elite,107||40.5394128|-74.2228391,Staten Island
40.6958593,-73.9925234,38 Monroe Place,11201,Brooklyn Heights,house,5,2.37,7200.0,14000000,Compass,38||40.6958593|-73.9925234,Brooklyn
40.7739766,-73.8070988,154-69 26th Avenue,11354,Flushing,house,3,2.0,950.0,1228000,Voro Llc,154||40.7739766|-73.8070988,Queens
40.7934553,-73.8471618,"120-10 Ketch Ct, College Point",11356,College Point,house,4,4.0,2400.0,880000,Goldstone N Y Realty Llc,120||40.7934553|-73.8471618,Queens
40.726843,-73.85458,120 Queens Boulevard #98,11374,Rego Park,condo,2,2.0,2184.21,369888,Keller Williams Rlty Landmark,120|98|40.726843|-73.85458,Queens
40.7616461,-73.9701294,465 Park Avenue Apt 34E,10022,Midtown East,condo,2,2.0,2184.21,500000,Douglas Elliman,465||40.7616461|-73.9701294,Manhattan
40.713904,-73.754948,205-05 Jamaica Avenue,11423,Jamaica,house,4,3.0,2184.21,499000,Bkny Troy Avenue Realty Corp,205||40.713904|-73.754948,Queens
40.7782443,-73.7706926,28-05 216th Street,11360,Murray Hill,house,5,2.37,3800.0,2998888,Keller Williams Rlty Landmark,28||40.7782443|-73.7706926,Queens
40.879078,-73.9175196,60 Knolls Crescent #8M,10463,Kingsbridge,condo,2,1.0,850.0,175849,"Robert E. Hill, Inc.",60|8m|40.879078|-73.9175196,Bronx
40.6365321,-74.1218622,32 Barker Street,10310,South Beach,house,3,2.0,1445.0,499000,M Holmes Realty Corp.,32||40.6365321|-74.1218622,Staten Island
40.8906352,-73.853094,861 E 231st Street,10466,Van Nest,house,6,3.0,1952.0,899975,Exp Realty,861||40.8906352|-73.853094,Bronx
40.7114417,-73.8490778,71-28 Manse Street,11375,Fresh Meadows,house,4,2.0,2050.0,1474000,Trusted Property Advisors Corp,71||40.7114417|-73.8490778,Queens
40.5462525,-74.1481727,79 Grandview Terrace,10308,St. George,house,6,5.0,6300.0,2750000,"Neuhaus Realty, Inc.",79||40.5462525|-74.1481727,Staten Island
40.6201406,-74.014486,7923 11th Avenue,11228,Bensonhurst,house,3,2.37,3428.0,3999000,Re/Max Edge,7923||40.6201406|-74.014486,Brooklyn
40.7248068,-73.7953763,76-66 174th Street,11366,Bayside,house,4,2.0,1700.0,1288000,Exit Realty First Choice,76||40.7248068|-73.7953763,Queens
40.6618245,-73.890638,719 Vermont Street,11207,East New York,house,4,2.0,1428.0,499000,5 Boro Realty Corp,719||40.6618245|-73.890638,Brooklyn
40.5657552,-74.1051158,70 Weed Avenue,10306,New Dorp,house,4,4.0,2400.0,989000,Ditommaso Real Estate,70||40.5657552|-74.1051158,Staten Island
40.6071254,-74.0925892,827 Richmond Road,10304,Todt Hill,house,3,2.0,2184.21,650000,Prospes Real Estate Corp,827||40.6071254|-74.0925892,Staten Island
40.5268622,-74.189752,181 Androvette Avenue,10312,Huguenot,house,4,4.0,4803.0,1999999,"Robert Defalco Realty, Inc.",181||40.5268622|-74.189752,Staten Island
40.7363228,-74.0064402,96 Bank Street,10014,West Village,house,4,4.0,3750.0,5990000,Serhant,96||40.7363228|-74.0064402,Manhattan
40.8799728,-73.9221419,2501 Palisade Avenue Apt D2,10463,Kingsbridge,condo,3,2.0,2184.21,1235000,Trebach Realty Inc,2501||40.8799728|-73.9221419,Bronx
40.7473555,-73.9813841,10 Park Avenue #10C,10016,Murray Hill,condo,1,1.0,2184.21,785000,City Connections Realty,10|10c|40.7473555|-73.9813841,Manhattan
40.8368955,-73.9465033,870 Riverside Drive #5D,10032,Washington Heights,condo,3,2.0,1750.0,750000,Coldwell Banker Reliable Real Estate,870|5d|40.8368955|-73.9465033,Manhattan
40.7770879,-73.9162687,25-01 23rd Avenue,11105,Astoria,house,3,3.0,2184.21,1400000,Modern Spaces Love Your Place,25||40.7770879|-73.9162687,Queens
40.8297242,-73.8263414,910 Revere Avenue,10465,Pelham Bay,house,6,3.0,2464.0,865000,Century 21 Kafcos Realty,910||40.8297242|-73.8263414,Bronx
40.7512505,-73.8814433,35-31 85th Street,11372,Forest Hills,house,1,1.0,2184.21,324000,Compass,35||40.7512505|-73.8814433,Queens
40.5136885,-74.2364803,7126 Amboy Road,10307,Tottenville,house,3,4.0,3750.0,1100000,Matias Real Estate,7126||40.5136885|-74.2364803,Staten Island
40.5757955,-74.009975,4415 Atlantic Avenue,11224,Coney Island,house,3,7.0,2184.21,2295000,A P Services Inc,4415||40.5757955|-74.009975,Brooklyn
40.6990407,-73.9929045,69 Orange Street,11201,Brooklyn Heights,house,4,2.0,2570.0,8950000,Douglas Elliman,69||40.6990407|-73.9929045,Brooklyn
40.5430335,-74.182131,252 Ionia Avenue,10312,Huguenot,house,3,4.0,2450.0,1348888,Re Max Central,252||40.5430335|-74.182131,Staten Island
40.9049354,-73.9060897,5620 Netherland Avenue #3G,10471,Riverdale,condo,2,1.0,850.0,220000,"Robert E. Hill, Inc.",5620|3g|40.9049354|-73.9060897,Bronx
40.684563,-73.914482,789 Macdonough Street #4G,11233,Bedford-Stuyvesant,condo,1,1.0,2184.21,185000,Brown Harris Stevens,789|4g|40.684563|-73.914482,Brooklyn
40.8978428,-73.8633611,514 E 235th Street,10470,Co-op City,house,2,2.0,1350.0,499000,Houlihan Lawrence,514||40.8978428|-73.8633611,Bronx
40.620076,-74.0306109,362 90th Street,11209,Fort Hamilton,house,4,3.0,1980.0,999999,Robert Defalco Realty Inc,362||40.620076|-74.0306109,
40.7319679,-74.0043858,51 Barrow Street,10014,West Village,house,2,2.0,2000.0,4995000,Corcoran East Side,51||40.7319679|-74.0043858,Manhattan
40.7235651,-73.9781799,248 E 7th Street,10009,Alphabet City,house,2,1.0,2184.21,700000,Corcoran Park Avenue South,248||40.7235651|-73.9781799,Manhattan
40.7668584,-73.7375575,45-33 Zion Street,11362,Fresh Meadows,house,4,4.0,1820.0,1180000,Re Max 1St Choice,45||40.7668584|-73.7375575,Queens
40.7550154,-73.8329807,132-03 Sanford Avenue #3B,11355,Flushing,condo,2,2.0,2184.21,609000,Re Max 1St Choice,132|3b|40.7550154|-73.8329807,Queens
40.5875717,-73.9712821,2525 W 2nd Street #2E,11223,Gravesend,condo,2,1.0,950.0,250000,"Amerihomes Realty Of Ny, Inc.",2525|2e|40.5875717|-73.9712821,Brooklyn
40.6794706,-73.8195636,111-45 120th Street,11420,Jamaica,house,3,2.0,2184.21,689000,Real Broker Ny Llc,111||40.6794706|-73.8195636,Queens
40.6082787,-73.7495095,"12-86 Augustina Avenue, Far Rockaway",11691,Far Rockaway,house,4,2.0,2184.21,585000,Jaymore Realty Llc,12||40.6082787|-73.7495095,
40.6202645,-74.1099106,1000 Clove Road #9F,10301,St. George,condo,3,1.0,550.0,109500,"Robert Defalco Realty, Inc.",1000|9f|40.6202645|-74.1099106,Staten Island
40.7578323,-73.9624557,410 E 57th Street #8B,10022,Midtown East,condo,3,1.0,640.0,299000,Corcoran Soho,410|8b|40.7578323|-73.9624557,Manhattan
40.6293682,-74.0870368,23 Howard Avenue,10301,St. George,house,3,2.0,1987.0,995000,Re/Max Central,23||40.6293682|-74.0870368,Staten Island
40.629498,-74.02725,338 77th Street,11209,Bay Ridge,house,6,2.0,3144.0,1499000,Re Max Real Estate Professionals,338||40.629498|-74.02725,
40.7626299,-73.78916,19315 37th Avenue # 177,11358,Bayside,condo,2,1.0,2184.21,299000,Douglas Elliman,19315|177|40.7626299|-73.78916,Queens
40.8712698,-73.9178529,57 Park Terrace W #3F,10034,Inwood,condo,3,1.0,550.0,279000,New Heights Realty,57|3f|40.8712698|-73.9178529,Manhattan
40.6797652,-73.8091668,131-16 115th Avenue,11420,Jamaica,house,3,2.0,2184.21,235000,Joshuas Realty,131||40.6797652|-73.8091668,Queens
40.7713789,-73.9798579,41 Central Park W #11A,10023,Upper West Side,condo,6,4.0,2184.21,17900000,Compass,41|11a|40.7713789|-73.9798579,Manhattan
40.6626245,-73.8680207,914 Pine Street,11208,East New York,house,5,3.0,2288.0,950000,Compass,914||40.6626245|-73.8680207,Brooklyn
40.7746518,-73.81583,149-47 26th Avenue,11354,Flushing,house,2,2.0,950.0,859000,Keller Williams Realty Landmark Ii,149||40.7746518|-73.81583,Queens
40.7518706,-73.8922741,34-51 74th Street,11372,Jackson Heights,house,5,4.0,2000.0,1999000,"Compass Greater Ny, Llc",34||40.7518706|-73.8922741,Queens
40.718209,-73.775417,86-84 188th Street,11423,Jamaica Estates,house,8,2.37,2988.0,1458888,Lombardo Homes & Estates,86||40.718209|-73.775417,Queens
40.677921,-73.9277691,36A Rochester Avenue,11233,Bedford-Stuyvesant,house,5,3.0,2184.21,650000,Ha Jones Realty & Management,36a||40.677921|-73.9277691,Brooklyn
40.6231568,-74.0148411,7619 10th Avenue,11228,Bensonhurst,house,4,3.0,1400.0,1100000,Re Max Real Estate Professionals,7619||40.6231568|-74.0148411,Brooklyn
40.7259759,-73.8599803,65-18 Austin Street #2C,11374,Rego Park,condo,1,1.0,554.0,478900,E Realty International Corp,65|2c|40.7259759|-73.8599803,Queens
40.735321,-73.9941315,5th Avenue,10003,Greenwich Village,house,2,2.0,965.0,2795000,Clas,5t||40.735321|-73.9941315,Manhattan
40.6366099,-74.0778245,45 Street Pauls Avenue,10301,St. George,house,5,2.0,2624.0,560000,Atlantic Apple Realty,45||40.6366099|-74.0778245,Staten Island
40.5963657,-74.0997473,108 Dutchess Avenue,10304,Mariner's Harbor,house,3,4.0,2024.0,868000,Momentum Real Estate Llc,108||40.5963657|-74.0997473,Staten Island
40.7562931,-73.7849475,196-11 45th Avenue,11358,Bayside,house,3,2.0,2184.21,999000,Regent Realty,196||40.7562931|-73.7849475,Queens
40.6729954,-73.8373187,Hawtree Street,11417,Ozone Park,house,5,6.0,2184.21,1590000,Douglas Elliman,||40.6729954|-73.8373187,Queens
